DISTRICT,INCLOCATION_X,LATITUDE_X,LONGITUDE_X,NEIGHBORHOOD,OID,RMS_NO,VICCOUNT,CITYSTATEZIP,RACE,SEX,AGE,TYPE,DATEOCCURRED,MONTHOCCURED,TIMEOCCURED,HROCCURED,DAYOCCURRED,RMSDUP,DATETIME,DSTFULL,ZIP
,,,,,3835,,0,,,,0,,,JAN,,N/A,SAT,0,,DISTRICT,
4,8XX WINDHAM AV,39.1428396994859,-84.489002603138,AVONDALE,846,41000510,1,,BLACK,MALE,32,NONFATAL,01/24/2010 12:00:00 AM,JAN,,N/A,SUN,41000510,01/24/2010 12:00:00 AM,DISTRICT 4,45229
4,34XX HARVEY AV,39.1404355917355,-84.4976525863056,AVONDALE,253,40805831,1,,BLACK,MALE,17,NONFATAL,08/12/2008 12:00:00 AM,AUG,,N/A,TUE,40805831,08/12/2008 12:00:00 AM,DISTRICT 4,45229
1,21XX WESTERN AV,39.1217437098575,-84.5382190319205,QUEENSGATE,212,08-H-35,1,,BLACK,MALE,27,FATAL,07/17/2008 12:00:00 AM,JUL,,N/A,THU,08-H-35,07/17/2008 12:00:00 AM,DISTRICT 1,45214
1,XX GREEN ST,39.114483163875,-84.5177054092784,OVER-THE-RHINE,675,10903678,1,,BLACK,MALE,18,NONFATAL,08/11/2009 12:00:00 AM,AUG,,N/A,TUE,10903678,08/11/2009 12:00:00 AM,DISTRICT 1,45202
5,5XX S I75 EX,39.160023049475,-84.5499803846562,NORTHSIDE,355,50806643,1,,BLACK,MALE,25,NONFATAL,10/26/2008 12:00:00 AM,OCT,,N/A,SUN,50806643,10/26/2008 12:00:00 AM,DISTRICT 5,45223
4,XX E GALBRAITH RD,39.21209227734,-84.4717124257827,HARTWELL,3180,159017614,1,"CINCINNATI, OH 45215",BLACK,MALE,33,NONFATAL,08/30/2015 12:00:00 AM,AUG,233000,23,SUN,159017614,08/30/2015 11:30:00 PM,DISTRICT 4,45216
4,51XX PADDOCK RD,39.1816832755773,-84.4767308690666,BOND HILL,1892,129020535,1,"CINC, OH 45237",BLACK,FEMALE,41,NONFATAL,07/22/2012 12:00:00 AM,JUL,042500,4,SUN,129020535,07/22/2012 04:25:00 AM,DISTRICT 4,45237
4,23XX READING RD,39.1235555034431,-84.5017003397665,WALNUT HILLS,2600,149010037,1,"CINC, OH 45219",BLACK,MALE,17,NONFATAL,05/03/2014 12:00:00 AM,MAY,234800,23,SAT,149010037,05/03/2014 11:48:00 PM,DISTRICT 4,45206
5,29XX HIGHFOREST LN,39.178399200544,-84.5612315430753,MOUNT AIRY,3755,169033151,1,,BLACK,MALE,48,NONFATAL,12/19/2016 12:00:00 AM,DEC,163000,16,MON,169033151,12/19/2016 04:30:00 PM,DISTRICT 5,
4,12XX REGENT AV,39.1762757400517,-84.476972037343,BOND HILL,3690,169026811,1,,BLACK,MALE,19,NONFATAL,10/13/2016 12:00:00 AM,OCT,213000,21,THU,169026811,10/13/2016 09:30:00 PM,DISTRICT 4,
1,16XX LOCKHURST LN,39.1135541476608,-84.5305363186963,WEST END,3275,159029546,2,"CINCINNATI, OH 45214",BLACK,MALE,23,FATAL,10/28/2015 12:00:00 AM,OCT,212700,21,WED,159029546,10/28/2015 09:27:00 PM,DISTRICT 1,
3,31XX MOOSEWOOD AV,39.141324741413,-84.5505530702517,MILLVALE,2797,149026782,1,"CINTI, OH 45210",BLACK,MALE,30,NONFATAL,10/20/2014 12:00:00 AM,OCT,203000,20,MON,149026782,10/20/2014 08:30:00 PM,DISTRICT 3,45225
3,19XX BALTIMORE AV,39.1360596047083,-84.5593195300837,NORTH FAIRMOUNT,2154,139008089,2,"CINC, OH 45214",BLACK,MALE,22,NONFATAL,04/08/2013 12:00:00 AM,APR,160000,16,MON,139008089,04/08/2013 04:00:00 PM,DISTRICT 3,45225
4,78XX READING RD,39.2055544171934,-84.4543622344519,ROSELAWN,1511,41104818,1,"CINC, OH 45237",BLACK,MALE,19,NONFATAL,07/27/2011 12:00:00 AM,JUL,215500,21,WED,41104818,07/27/2011 09:55:00 PM,DISTRICT 4,45237
1,8XX FINDLAY ST,39.1160663831254,-84.5286275718152,WEST END,3086,159016487,1,"CINCINNATI, OH 45214",BLACK,MALE,21,NONFATAL,06/26/2015 12:00:00 AM,JUN,022000,2,FRI,159016487,06/26/2015 02:20:00 AM,DISTRICT 1,45214
3,32XX BOWLING GREEN CT,39.1432715510754,-84.5516450244679,MILLVALE,1878,129018512,1,"CINC, OH 45205",BLACK,MALE,23,NONFATAL,07/07/2012 12:00:00 AM,JUL,022000,2,SAT,129018512,07/07/2012 02:20:00 AM,DISTRICT 3,45225
1,XX E FIFTEENTH ST,39.1115390945005,-84.5142073348199,OVER-THE-RHINE,980,11001995,1,,BLACK,MALE,23,NONFATAL,05/25/2010 12:00:00 AM,MAY,,N/A,TUE,11001995,05/25/2010 12:00:00 AM,DISTRICT 1,45202
4,1XX W 68TH ST,39.1926733312801,-84.4852612721621,CARTHAGE,3659,169024647,1,,BLACK,MALE,18,NONFATAL,09/21/2016 12:00:00 AM,SEP,200000,20,WED,169024647,09/21/2016 08:00:00 PM,DISTRICT 4,
4,6XX PROSPECT PL,39.1427854915822,-84.4918926106013,AVONDALE,3630,169022514,1,"CINCINNATI, OH 45229",BLACK,MALE,44,NONFATAL,09/01/2016 12:00:00 AM,SEP,002500,0,THU,169022514,09/01/2016 12:25:00 AM,DISTRICT 4,
1,XX E MCMICKEN AV,39.1154970224437,-84.5144775729266,OVER-THE-RHINE,3211,159026176,1,"CINCINNATI, OH",BLACK,MALE,45,NONFATAL,09/23/2015 12:00:00 AM,SEP,191700,19,WED,159026176,09/23/2015 07:17:00 PM,DISTRICT 1,
1,5XX W LIBERTY ST,39.1137376689761,-84.5259081934947,WEST END,2159,139008257,1,"CINC, OH 45202",BLACK,MALE,21,NONFATAL,04/09/2013 12:00:00 AM,APR,210200,21,TUE,139008257,04/09/2013 09:02:00 PM,DISTRICT 1,45214
5,4XX KINGS RUN CT,39.1773512909686,-84.5103326089301,WINTON HILLS,2202,139011587,4,"CINC, OH 45223",BLACK,MALE,25,NONFATAL,05/13/2013 12:00:00 AM,MAY,012800,1,MON,139011587,05/13/2013 01:28:00 AM,DISTRICT 5,45232
1,15XX REPUBLIC ST,39.1112575544856,-84.5160849537041,OVER-THE-RHINE,2264,139015295,1,"CINC, OH 45237",BLACK,MALE,34,NONFATAL,06/18/2013 12:00:00 AM,JUN,,N/A,TUE,139015295,06/18/2013 12:00:00 AM,DISTRICT 1,45202
1,X E 15TH,39.1111527202672,-84.5156541428291,OVER-THE-RHINE,2272,139016080,1,"CLARKSVILLE, IN 47129",WHITE,MALE,22,NONFATAL,06/25/2013 12:00:00 AM,JUN,034400,3,TUE,139016080,06/25/2013 03:44:00 AM,DISTRICT 1,45202
2,62XX DESMOND,39.1621403050041,-84.3888145865127,MADISONVILLE,2157,139008169,1,"CINC, OH 45227",BLACK,MALE,40,NONFATAL,04/08/2013 12:00:00 AM,APR,221000,22,MON,139008169,04/08/2013 10:10:00 PM,DISTRICT 2,45227
5,42XX BROOKSIDE AV,39.1646421734856,-84.5392880773321,NORTHSIDE,3386,169004369,1,"CINCINNATI, OH 45214",BLACK,MALE,37,NONFATAL,02/24/2016 12:00:00 AM,FEB,233000,23,WED,169004369,02/24/2016 11:30:00 PM,DISTRICT 5,
3,24XX WILLIAMSBURG DR,39.1550457593418,-84.5610583754365,FAYE APARTMENTS,2890,159002968,1,UNKNOWN,BLACK,MALE,18,NONFATAL,02/04/2015 12:00:00 AM,FEB,073300,7,WED,159002968,02/04/2015 07:33:00 AM,DISTRICT 3,45225
C,11XX VINE ST,39.1063160250161,-84.5143273676113,CBD/RIVERFRONT,2083,139001230,1,"CINC, OH 45211",BLACK,MALE,20,NONFATAL,01/15/2013 12:00:00 AM,JAN,124700,12,TUE,139001230,01/15/2013 12:47:00 PM,CENTRAL BUSINESS SECTION,45202
5,54XX WINNESTE AV,39.1893713767942,-84.5137050430885,WINTON HILLS,1144,51005881S1,2,,BLACK,MALE,110,NONFATAL,09/24/2010 12:00:00 AM,SEP,,N/A,FRI,51005881S1,09/24/2010 12:00:00 AM,DISTRICT 5,45232
1,XX E MCMICKEN AV,39.1142007950889,-84.515717007041,OVER-THE-RHINE,2403,139026787,1,"CINC, OH 45202",BLACK,MALE,84,FATAL,09/29/2013 12:00:00 AM,SEP,055000,5,SUN,139026787,09/29/2013 05:50:00 AM,DISTRICT 1,45202
2,18XX CLARION AV,39.1444981324115,-84.4692561129437,EVANSTON,1981,129028794,1,"CINC, OH 45223",BLACK,MALE,25,NONFATAL,10/05/2012 12:00:00 AM,OCT,002200,0,FRI,129028794,10/05/2012 12:22:00 AM,DISTRICT 2,45207
5,45XX HAMILTON AV,39.1721090805988,-84.5430384639487,NORTHSIDE,3726,169029843,1,,BLACK,MALE,21,NONFATAL,11/14/2016 12:00:00 AM,NOV,150000,15,MON,169029843,11/14/2016 03:00:00 PM,DISTRICT 5,
4,1XX W NORTH BEND RD,39.1989562714579,-84.480283183871,CARTHAGE,1628,41107050,2,"CINC, OH 45237",BLACK,MALE,21,FATAL,10/30/2011 12:00:00 AM,OCT,205000,20,SUN,41107050,10/30/2011 08:50:00 PM,DISTRICT 4,45216
1,18XX GOOSE AL,39.1154014096394,-84.5187221039587,OVER-THE-RHINE,1015,11002492,1,,BLACK,MALE,22,FATAL,06/17/2010 12:00:00 AM,JUN,,N/A,THU,11002492,06/17/2010 12:00:00 AM,DISTRICT 1,45202
4,14XX CALIFORNIA AV,39.1754529681588,-84.4738688170238,BOND HILL,2471,139032697,1,"CINC, OH 45229",BLACK,MALE,30,NONFATAL,12/02/2013 12:00:00 AM,DEC,201000,20,MON,139032697,12/02/2013 08:10:00 PM,DISTRICT 4,45237
4,30XX WALTER AV,39.1362755784894,-84.4856714124853,WALNUT HILLS,16,40800330,1,,BLACK,MALE,37,NONFATAL,01/15/2008 12:00:00 AM,JAN,,N/A,TUE,40800330,01/15/2008 12:00:00 AM,DISTRICT 4,45206
2,62XX CHANDLER ST,39.1634886230684,-84.3873257243215,MADISONVILLE,3561,169021235,1,,BLACK,MALE,5,FATAL,07/16/2016 12:00:00 AM,JUL,120500,12,SAT,169021235,07/16/2016 12:05:00 PM,DISTRICT 2,
4,2XX MCGREGOR AV,39.1233525474373,-84.5055049228954,MOUNT AUBURN,1671,41107949,1,"CINC, OH 45219",BLACK,MALE,18,NONFATAL,12/13/2011 12:00:00 AM,DEC,003000,0,TUE,41107949,12/13/2011 12:30:00 AM,DISTRICT 4,45219
3,38XX PRESIDENT DR,39.1547172113089,-84.5599992813609,FAYE APARTMENTS,599,30905341,1,,BLACK,MALE,54,FATAL,06/13/2009 12:00:00 AM,JUN,,N/A,SAT,30905341,06/13/2009 12:00:00 AM,DISTRICT 3,45225
2,17XX DANA AV,39.1472911099745,-84.4687556631222,EVANSTON,1011,21002492,1,,BLACK,MALE,27,FATAL,06/15/2010 12:00:00 AM,JUN,,N/A,TUE,21002492,06/15/2010 12:00:00 AM,DISTRICT 2,45207
3,24XX NOTTINGHAM RD,39.1561375415094,-84.5604956862455,FAYE APARTMENTS,505,30902528,1,,BLACK,MALE,19,NONFATAL,03/26/2009 12:00:00 AM,MAR,,N/A,THU,30902528,03/26/2009 12:00:00 AM,DISTRICT 3,45225
5,25XX HALSTED ST,39.1274709175634,-84.531599439339,CUF,2894,159003287,1,"CINCINNATI, OH 45214",BLACK,FEMALE,30,NONFATAL,02/08/2015 12:00:00 AM,FEB,100400,10,SUN,159003287,02/08/2015 10:04:00 AM,DISTRICT 5,45214
4,7XX S SHUTTLESWORTH CR,39.1519515969091,-84.4870582245927,NORTH AVONDALE,302,40807264,1,,,,108,NONFATAL,09/28/2008 12:00:00 AM,SEP,,N/A,SUN,40807264,09/28/2008 12:00:00 AM,DISTRICT 4,45229
5,51XX HOLLAND DR,39.1864138486255,-84.5113474435418,WINTON HILLS,2926,159006877,1,"CINCINNATI, OH 45232",BLACK,FEMALE,17,NONFATAL,03/23/2015 12:00:00 AM,MAR,185200,18,MON,159006877,03/23/2015 06:52:00 PM,DISTRICT 5,45232
3,36XX MCHENRY AV,39.1506479667957,-84.5623683949563,EAST WESTWOOD,2100,139003093,1,"CINC, OH 45225",BLACK,MALE,33,NONFATAL,02/05/2013 12:00:00 AM,FEB,162000,16,TUE,139003093,02/05/2013 04:20:00 PM,DISTRICT 3,45225
1,4XX DAYTON ST,39.1182621613046,-84.5259790265929,WEST END,3061,159014864,1,"CINCI, OH 45227",BLACK,MALE,34,NONFATAL,06/11/2015 12:00:00 AM,JUN,134000,13,THU,159014864,06/11/2015 01:40:00 PM,DISTRICT 1,45214
4,10XX BURTON AV,39.1493923852858,-84.4816213848088,NORTH AVONDALE,2033,139001389,1,"CINCOH, 45225",BLACK,MALE,19,FATAL,11/21/2012 12:00:00 AM,NOV,174300,17,WED,139001389,11/21/2012 05:43:00 PM,DISTRICT 4,45229
C,1XX GOVERNMENT PL,39.1013811217853,-84.5114752933197,CBD/RIVERFRONT,646,10903288,1,,BLACK,MALE,18,NONFATAL,07/23/2009 12:00:00 AM,JUL,,N/A,THU,10903288,07/23/2009 12:00:00 AM,CENTRAL BUSINESS SECTION,45202
1,5XX E TWELFTH ST,39.1110940204704,-84.5051520203136,PENDLETON,209,10803364,1,,BLACK,MALE,19,NONFATAL,07/14/2008 12:00:00 AM,JUL,,N/A,MON,10803364,07/14/2008 12:00:00 AM,DISTRICT 1,45202
1,1XX E CLIFTON AVE,39.1154109765501,-84.5148769428279,OVER-THE-RHINE,1373,11101644,1,"CINC, OH 45225",BLACK,MALE,27,NONFATAL,04/26/2011 12:00:00 AM,APR,122000,12,TUE,11101644,04/26/2011 12:20:00 PM,DISTRICT 1,45202
4,24XX PARIS ST,39.1261538736783,-84.5055308769765,MOUNT AUBURN,85,40802416,1,,BLACK,MALE,26,NONFATAL,04/14/2008 12:00:00 AM,APR,,N/A,MON,40802416,04/14/2008 12:00:00 AM,DISTRICT 4,45219
5,1XX CRAFT ST,39.1780844046807,-84.5103142155195,WINTON HILLS,3419,169006939,1,"CINCINNATI, OH 45039",WHITE,MALE,20,NONFATAL,03/25/2016 12:00:00 AM,MAR,235500,23,FRI,169006939,03/25/2016 11:55:00 PM,DISTRICT 5,
3,17XX MONTROSE ST,39.1260043670695,-84.5556702689474,SOUTH FAIRMOUNT,805,30911718,1,,BLACK,MALE,50,NONFATAL,12/08/2009 12:00:00 AM,DEC,,N/A,TUE,30911718,12/08/2009 12:00:00 AM,DISTRICT 3,45214
3,36XX VANVEY AV,39.1093387381209,-84.5720298971674,EAST PRICE HILL,1055,31007225,2,"INDEPENDENCE, KY 4105",WHITE,MALE,30,NONFATAL,07/26/2010 12:00:00 AM,JUL,,N/A,MON,31007225,07/26/2010 12:00:00 AM,DISTRICT 3,45205
5,6XX STRAND LN,39.1884227443797,-84.5126266918112,WINTON HILLS,244,50804651,1,,BLACK,MALE,23,NONFATAL,08/04/2008 12:00:00 AM,AUG,,N/A,MON,50804651,08/04/2008 12:00:00 AM,DISTRICT 5,45232
4,20XX HIGHLAND AV,39.1182882345843,-84.5030806018021,MOUNT AUBURN,797,40908400,1,,BLACK,MALE,53,FATAL,12/02/2009 12:00:00 AM,DEC,,N/A,WED,40908400,12/02/2009 12:00:00 AM,DISTRICT 4,45219
4,5XX HICKORY ST,39.1445658081602,-84.4960592862444,AVONDALE,488,40901558,2,,BLACK,MALE,26,FATAL,03/08/2009 12:00:00 AM,MAR,,N/A,SUN,40901558,03/08/2009 12:00:00 AM,DISTRICT 4,45229
4,46XX PADDOCK RD,39.1676440611789,-84.4778778430689,BOND HILL,1040,41004125,1,"CINC, OH 45229",BLACK,MALE,29,NONFATAL,07/10/2010 12:00:00 AM,JUL,,N/A,SAT,41004125,07/10/2010 12:00:00 AM,DISTRICT 4,45229
3,28XX HARRISON RD,39.1427484337072,-84.5916607669062,WESTWOOD,2672,149016240,1,"TROTWOOD, OH 45426",BLACK,MALE,22,NONFATAL,07/04/2014 12:00:00 AM,JUL,013000,1,FRI,149016240,07/04/2014 01:30:00 AM,DISTRICT 3,45211
1,1XX EAST CLIFTON AV,39.1153035483831,-84.5137965949979,OVER-THE-RHINE,2487,139034511,1,"CINCINNATI, OH 45239",BLACK,MALE,34,NONFATAL,12/24/2013 12:00:00 AM,DEC,150000,15,TUE,139034511,12/24/2013 03:00:00 PM,DISTRICT 1,45202
5,XX CRAFT ST,39.1785302849549,-84.5105631730152,WINTON HILLS,1302,51100855,1,"CINC, OH 45232",BLACK,FEMALE,35,NONFATAL,02/18/2011 12:00:00 AM,FEB,002900,0,FRI,51100855,02/18/2011 12:29:00 AM,DISTRICT 5,45232
1,4XX E TWELFTH ST,39.109545967757,-84.5067977272206,PENDLETON,1165,11004586,2,"CINC, OH 45219",BLACK,MALE,23,NONFATAL,10/07/2010 12:00:00 AM,OCT,,N/A,THU,11004586,10/07/2010 12:00:00 AM,DISTRICT 1,45202
3,33XX MCHENRY AV,39.1464994324548,-84.5714011904823,EAST WESTWOOD,3159,159022009,1,"COVINGTON, KY 41011",BLACK,MALE,31,NONFATAL,08/16/2015 12:00:00 AM,AUG,230200,23,SUN,159022009,08/16/2015 11:02:00 PM,DISTRICT 3,
3,37XX PRESIDENT DR,39.152064818631,-84.5602834237288,FAYE APARTMENTS,78,30803065,1,,WHITE,MALE,26,NONFATAL,04/11/2008 12:00:00 AM,APR,,N/A,FRI,30803065,04/11/2008 12:00:00 AM,DISTRICT 3,45225
5,54XX BETTMAN DR,39.1878090804809,-84.5112573919319,WINTON HILLS,3698,169027669,1,,BLACK,MALE,31,NONFATAL,10/22/2016 12:00:00 AM,OCT,220500,22,SAT,169027669,10/22/2016 10:05:00 PM,DISTRICT 5,
4,18XX HIGHLAND AV,39.1156972204841,-84.5041897690525,MOUNT AUBURN,2784,149025606,1,"CINC, OH 45206",BLACK,MALE,23,NONFATAL,10/08/2014 12:00:00 AM,OCT,160000,16,WED,149025606,10/08/2014 04:00:00 PM,DISTRICT 4,45202
1,17XX VINE ST,39.1141049122958,-84.5155095904997,OVER-THE-RHINE,1851,129018171,1,"CINCINNATI, OH",BLACK,FEMALE,15,FATAL,06/18/2012 12:00:00 AM,JUN,231000,23,MON,129018171,06/18/2012 11:10:00 PM,DISTRICT 1,45202
3,24XX WILLIAMSBURG DR,39.1542101393573,-84.5609004367247,FAYE APARTMENTS,2703,149018818,1,"CINCINNATI, OH",BLACK,FEMALE,24,NONFATAL,08/02/2014 12:00:00 AM,AUG,203000,20,SAT,149018818,08/02/2014 08:30:00 PM,DISTRICT 3,45225
4,70XX GLENMEADOW LN,39.1888625269751,-84.4673981852848,BOND HILL,481,40901581,2,,BLACK,MALE,19,FATAL,03/04/2009 12:00:00 AM,MAR,,N/A,WED,40901581,03/04/2009 12:00:00 AM,DISTRICT 4,45237
1,X W ELDER ST,39.1157198696471,-84.5167983486936,OVER-THE-RHINE,2479,139033697,1,"CINC, OH 45207",BLACK,MALE,24,NONFATAL,12/14/2013 12:00:00 AM,DEC,193800,19,SAT,139033697,12/14/2013 07:38:00 PM,DISTRICT 1,45202
4,37XX READING RD,39.1504847016601,-84.4862847444046,NORTH AVONDALE,299,40807261,1,,BLACK,MALE,27,FATAL,09/25/2008 12:00:00 AM,SEP,,N/A,THU,40807261,09/25/2008 12:00:00 AM,DISTRICT 4,45229
1,19XX VINE ST,39.1161648851982,-84.5164025886289,OVER-THE-RHINE,826,10906065,1,,BLACK,MALE,36,NONFATAL,12/25/2009 12:00:00 AM,DEC,,N/A,FRI,10906065,12/25/2009 12:00:00 AM,DISTRICT 1,45202
3,17XX WEBER ST,39.1549970010206,-84.5476578915765,SOUTH CUMMINSVILLE,1111,31008959,2,"CINC, OH 45211",BLACK,MALE,20,NONFATAL,09/07/2010 12:00:00 AM,SEP,,N/A,TUE,31008959,09/07/2010 12:00:00 AM,DISTRICT 3,45223
1,20XX LINN ST,39.1189190343811,-84.5272984180784,WEST END,575,10902119,2,,BLACK,MALE,24,NONFATAL,05/24/2009 12:00:00 AM,MAY,,N/A,SUN,10902119,05/24/2009 12:00:00 AM,DISTRICT 1,45214
1,S I75 AT 1-5 MM,39.1098285233042,-84.5310026950579,WEST END,3181,159023538,3,"CINCINNATI, OH 45240",BLACK,MALE,21,NONFATAL,08/30/2015 12:00:00 AM,AUG,234500,23,SUN,159023538,08/30/2015 11:45:00 PM,DISTRICT 1,45214
1,2XX E CLIFTON AV,39.115716026765,-84.5135085994496,OVER-THE-RHINE,772,10905394,1,,WHITE,MALE,24,NONFATAL,11/15/2009 12:00:00 AM,NOV,,N/A,SUN,10905394,11/15/2009 12:00:00 AM,DISTRICT 1,45202
4,3XX ROCKDALE AV,39.1448824348928,-84.5018160122192,AVONDALE,1890,129020063,1,"CINC, OH 45220",BLACK,MALE,19,NONFATAL,07/19/2012 12:00:00 AM,JUL,110000,11,THU,129020063,07/19/2012 11:00:00 AM,DISTRICT 4,45229
4,35XX IRVING ST,39.1475150985054,-84.5079555637591,AVONDALE,444,40900585,1,,BLACK,MALE,23,FATAL,01/23/2009 12:00:00 AM,JAN,,N/A,FRI,40900585,01/23/2009 12:00:00 AM,DISTRICT 4,45220
5,51XX WINNESTE AV,39.1841475436981,-84.5128008437655,WINTON HILLS,1341,51101647,1,"CIN, OH 45227",BLACK,FEMALE,25,NONFATAL,04/02/2011 12:00:00 AM,APR,221000,22,SAT,51101647,04/02/2011 10:10:00 PM,DISTRICT 5,45232
5,47XX ESTE AV,39.176676014216,-84.5080437507304,WINTON HILLS,1638,51106314,1,"SPRINGDALE, OH 45246",BLACK,MALE,18,NONFATAL,11/08/2011 12:00:00 AM,NOV,001000,0,TUE,51106314,11/08/2011 12:10:00 AM,DISTRICT 5,45232
4,7XX LINCOLN AV,39.1316901437334,-84.4925842661677,WALNUT HILLS,174,40804423,1,,BLACK,MALE,17,NONFATAL,06/25/2008 12:00:00 AM,JUN,,N/A,WED,40804423,06/25/2008 12:00:00 AM,DISTRICT 4,45206
3,32XX MONTANA AV,39.149661914772,-84.6089769613065,WESTWOOD,1498,31106326,1,"CINC, OH 45211",BLACK,FEMALE,48,NONFATAL,07/19/2011 12:00:00 AM,JUL,231000,23,TUE,31106326,07/19/2011 11:10:00 PM,DISTRICT 3,45211
5,56XX WINNESTE AV,39.1909590701202,-84.5150100434447,WINTON HILLS,470,50900919,1,,BLACK,MALE,21,NONFATAL,02/21/2009 12:00:00 AM,FEB,,N/A,SAT,50900919,02/21/2009 12:00:00 AM,DISTRICT 5,45232
5,16XX LLANFAIR AV,39.1958198001126,-84.5474811484503,COLLEGE HILL,128,50802907,1,,BLACK,MALE,24,NONFATAL,05/24/2008 12:00:00 AM,MAY,,N/A,SAT,50802907,05/24/2008 12:00:00 AM,DISTRICT 5,45224
4,3XX HELEN ST,39.1233284049177,-84.5025950080475,MOUNT AUBURN,934,41001835,1,,BLACK,MALE,54,NONFATAL,04/06/2010 12:00:00 AM,APR,,N/A,TUE,41001835,04/06/2010 12:00:00 AM,DISTRICT 4,45219
4,7XX RIDGEWAY AV,39.1391940674457,-84.4958204965712,AVONDALE,1908,129021922,2,"CINC, OH 45205",BLACK,MALE,22,NONFATAL,08/03/2012 12:00:00 AM,AUG,231900,23,FRI,129021922,08/03/2012 11:19:00 PM,DISTRICT 4,45229
3,21XX QUEEN CITY AV,39.1281263476491,-84.5716101656466,SOUTH FAIRMOUNT,1306,31101367,1,"CINC, OH 45233",WHITE,MALE,18,NONFATAL,02/20/2011 12:00:00 AM,FEB,010000,1,SUN,31101367,02/20/2011 01:00:00 AM,DISTRICT 3,45214
5,4XX KINGS RUN DR,39.1777927588872,-84.5095528273351,WINTON HILLS,2280,139016487,1,"CINC, OH 45211",BLACK,MALE,20,NONFATAL,06/27/2013 12:00:00 AM,JUN,195000,19,THU,139016487,06/27/2013 07:50:00 PM,DISTRICT 5,45232
3,12XX WESSELS AV,39.1149391641465,-84.5716859098691,EAST PRICE HILL,2049,129036780,3,,BLACK,MALE,16,FATAL,12/17/2012 12:00:00 AM,DEC,231000,23,MON,129036780,12/17/2012 11:10:00 PM,DISTRICT 3,45205
3,21XX WESTWOOD NORTHERN BV,39.1445581271689,-84.5629350094612,EAST WESTWOOD,3410,169005912,1,"CINCINNATI, OH 45225",BLACK,MALE,15,NONFATAL,03/14/2016 12:00:00 AM,MAR,141000,14,MON,169005912,03/14/2016 02:10:00 PM,DISTRICT 3,
4,25XX HEMLOCK ST,39.1260972606199,-84.4931836092789,WALNUT HILLS,3382,169004053,1,"CINCINNATI, OH 45206",BLACK,MALE,58,NONFATAL,02/21/2016 12:00:00 AM,FEB,091100,9,SUN,169004053,02/21/2016 09:11:00 AM,DISTRICT 4,
4,5XX HICKORY ST,39.1437058081602,-84.4963292862444,AVONDALE,487,40901558,2,,BLACK,MALE,20,FATAL,03/08/2009 12:00:00 AM,MAR,,N/A,SUN,40901558,03/08/2009 12:00:00 AM,DISTRICT 4,45229
4,77XX READING RD,39.2036618259345,-84.4562504305966,ROSELAWN,1452,41103891,2,"CINC, OH 45237",BLACK,MALE,31,NONFATAL,06/22/2011 12:00:00 AM,JUN,193900,19,WED,41103891,06/22/2011 07:39:00 PM,DISTRICT 4,45237
1,8XX HORACE ST,39.1192452401609,-84.5271865486963,WEST END,300,10804915,1,,BLACK,MALE,20,FATAL,09/26/2008 12:00:00 AM,SEP,,N/A,FRI,10804915,09/26/2008 12:00:00 AM,DISTRICT 1,45214
4,6XX GHOLSON AV,39.1486528822067,-84.4918600961189,NORTH AVONDALE,1626,41107027,1,"CINC, OH 45229",BLACK,MALE,60,FATAL,10/30/2011 12:00:00 AM,OCT,064400,6,SUN,41107027,10/30/2011 06:44:00 AM,DISTRICT 4,45229
1,8XX W LIBERTY ST,39.1137691787888,-84.528977386383,WEST END,1458,11102596,1,"CINC, OH 45214",BLACK,MALE,17,NONFATAL,06/26/2011 12:00:00 AM,JUN,001000,0,SUN,11102596,06/26/2011 12:10:00 AM,DISTRICT 1,45214
3,9XX ELBERON AV,39.1092406328155,-84.5649711827266,EAST PRICE HILL,3480,169012611,2,"CINCINNATI, OH 45214",BLACK,MALE,19,NONFATAL,05/26/2016 12:00:00 AM,MAY,225000,22,THU,169012611,05/26/2016 10:50:00 PM,DISTRICT 3,
5,48XX HAWAIIAN TER,39.1838697401271,-84.5605162458199,MOUNT AIRY,3693,169027159,1,,BLACK,MALE,19,NONFATAL,10/17/2016 12:00:00 AM,OCT,135500,13,MON,169027159,10/17/2016 01:55:00 PM,DISTRICT 5,
3,44XX RAPID RUN RD,39.1134839168768,-84.59168244635,WEST PRICE HILL,3647,169023226,1,,BLACK,MALE,19,NONFATAL,09/07/2016 12:00:00 AM,SEP,190000,19,WED,169023226,09/07/2016 07:00:00 PM,DISTRICT 3,
4,20XX SEYMOUR AV,39.1844723024499,-84.4594837132589,BOND HILL,704,40906132,1,,BLACK,MALE,31,NONFATAL,09/01/2009 12:00:00 AM,SEP,,N/A,TUE,40906132,09/01/2009 12:00:00 AM,DISTRICT 4,45237
4,23XX READING RD,39.1231684874871,-84.501774321124,WALNUT HILLS,3822,179004107,1,,BLACK,MALE,20,NONFATAL,02/13/2017 12:00:00 AM,FEB,125500,12,MON,179004107,02/13/2017 12:55:00 PM,DISTRICT 4,
4,10XX BURTON AVE,39.1499349252059,-84.4815968638948,NORTH AVONDALE,2808,149027996,1,"CINC, OH 45217",BLACK,MALE,38,NONFATAL,11/01/2014 12:00:00 AM,NOV,193400,19,SAT,149027996,11/01/2014 07:34:00 PM,DISTRICT 4,45229
4,20XX BURNET AV,39.1190303314413,-84.5035198351879,MOUNT AUBURN,297,40807100,1,,BLACK,MALE,25,NONFATAL,09/24/2008 12:00:00 AM,SEP,,N/A,WED,40807100,09/24/2008 12:00:00 AM,DISTRICT 4,45219
4,9XX DANA AV,39.1510087686696,-84.4834381973156,NORTH AVONDALE,1237,41007867,1,"CINC, OH 45229",BLACK,MALE,36,NONFATAL,12/08/2010 12:00:00 AM,DEC,,N/A,WED,41007867,12/08/2010 12:00:00 AM,DISTRICT 4,45229
4,35XX WASHINGTON AV,39.1491986408953,-84.4942522641879,NORTH AVONDALE,514,40902241,1,,BLACK,MALE,36,NONFATAL,04/07/2009 12:00:00 AM,APR,,N/A,TUE,40902241,04/07/2009 12:00:00 AM,DISTRICT 4,45229
5,XX SB I75,37.7967513348935,-89.3171004690163,CAMP WASHINGTON,1578,51105300,1,"CINC, OH 45237",BLACK,MALE,32,NONFATAL,09/20/2011 12:00:00 AM,SEP,145000,14,TUE,51105300,09/20/2011 02:50:00 PM,DISTRICT 5,45052
4,28XX ASHLAND AV,39.1300660946865,-84.482560911525,WALNUT HILLS,1795,129009813,1,"CINC, OH 45207",BLACK,MALE,51,FATAL,04/16/2012 12:00:00 AM,APR,010100,1,MON,129009813,04/16/2012 01:01:00 AM,DISTRICT 4,45206
4,7XX CHALFONTE PL,39.1492662790285,-84.4898503249091,NORTH AVONDALE,364,40808286,2,,BLACK,MALE,19,NONFATAL,11/01/2008 12:00:00 AM,NOV,,N/A,SAT,40808286,11/01/2008 12:00:00 AM,DISTRICT 4,45229
4,8XX LINCOLN AV,39.1328189372053,-84.490111989776,WALNUT HILLS,2619,149011541,2,"CINCINNATI, OH 45206",BLACK,MALE,27,NONFATAL,05/20/2014 12:00:00 AM,MAY,005000,0,TUE,149011541,05/20/2014 12:50:00 AM,DISTRICT 4,45206
2,48XX WHETSEL AV,39.1594771523397,-84.3930788791558,MADISONVILLE,2277,139016395,1,"CINC, OH 45227",BLACK,MALE,52,NONFATAL,06/26/2013 12:00:00 AM,JUN,140000,14,WED,139016395,06/26/2013 02:00:00 PM,DISTRICT 2,45227
5,40XX CHERRY ST,39.1598612778696,-84.542095770525,NORTHSIDE,2184,139010077,1,"CINC, OH 45223",BLACK,MALE,20,NONFATAL,04/29/2013 12:00:00 AM,APR,155000,15,MON,139010077,04/29/2013 03:50:00 PM,DISTRICT 5,45223
5,81XX DALY RD,39.215329291107,-84.5313796066759,COLLEGE HILL,1275,51100127,1,"CINC, OH 45229",BLACK,MALE,24,NONFATAL,01/07/2011 12:00:00 AM,JAN,185500,18,FRI,51100127,01/07/2011 06:55:00 PM,DISTRICT 5,45224
3,45XX GLENWAY AV,39.1142119607264,-84.5901298268038,WEST PRICE HILL,879,31001679,1,"CINCINNATI, OH 45227",BLACK,MALE,18,NONFATAL,03/03/2010 12:00:00 AM,MAR,,N/A,WED,31001679,03/03/2010 12:00:00 AM,DISTRICT 3,45205
5,42XX FLORIDA AV,39.1651800793509,-84.5480549199255,NORTHSIDE,1677,51107071,1,"CIN, OH 45232",WHITE,MALE,37,NONFATAL,12/18/2011 12:00:00 AM,DEC,204000,20,SUN,51107071,12/18/2011 08:40:00 PM,DISTRICT 5,45223
1,5XX E TWELFTH ST,39.1094550017094,-84.5047328815243,PENDLETON,687,10903864,1,,BLACK,MALE,30,NONFATAL,08/21/2009 12:00:00 AM,AUG,,N/A,FRI,10903864,08/21/2009 12:00:00 AM,DISTRICT 1,45202
4,7XX S FRED SHUTTLESWORTH CR,39.151169617735,-84.4893530658824,NORTH AVONDALE,3101,159017391,1,"CINC, OH 45229",BLACK,MALE,22,NONFATAL,07/05/2015 12:00:00 AM,JUL,180000,18,SUN,159017391,07/05/2015 06:00:00 PM,DISTRICT 4,45229
4,XX FOREST AV,39.1490881887216,-84.5103060287026,AVONDALE,953,41002212,1,,BLACK,MALE,34,NONFATAL,04/21/2010 12:00:00 AM,APR,,N/A,WED,41002212,04/21/2010 12:00:00 AM,DISTRICT 4,45220
4,23XX GILBERT AV,39.1230582391732,-84.4916057205838,WALNUT HILLS,3071,159015780,1,"CINC, OH 45206",BLACK,MALE,47,NONFATAL,06/20/2015 12:00:00 AM,JUN,002500,0,SAT,159015780,06/20/2015 12:25:00 AM,DISTRICT 4,45206
5,16XX WEST FORD RD,39.1640694618122,-84.5548392900714,NORTHSIDE,2820,149029095,1,CINCI/OH/45231,BLACK,MALE,21,NONFATAL,11/13/2014 12:00:00 AM,NOV,213500,21,THU,149029095,11/13/2014 09:35:00 PM,DISTRICT 5,45223
3,19XX WESTWOOD NORTHERN,39.142815098454,-84.557519747282,EAST WESTWOOD,2512,149001792,1,"CINTI, OH 45225",BLACK,MALE,57,FATAL,01/24/2014 12:00:00 AM,JAN,,N/A,FRI,149001792,01/24/2014 12:00:00 AM,DISTRICT 3,45225
3,16XX TREMONT ST,39.1269897329188,-84.5506570688703,SOUTH FAIRMOUNT,1455,31105456,1,"CINC, OH 45207",BLACK,MALE,25,NONFATAL,06/25/2011 12:00:00 AM,JUN,010000,1,SAT,31105456,06/25/2011 01:00:00 AM,DISTRICT 3,45214
1,2XX PEETE ST,39.115029302875,-84.5142857557094,OVER-THE-RHINE,1310,11100794,1,"CINC., OH 45211",BLACK,MALE,25,FATAL,03/01/2011 12:00:00 AM,MAR,194800,19,TUE,11100794,03/01/2011 07:48:00 PM,DISTRICT 1,45202
4,7XX WAYNE ST,39.1263332440733,-84.4941360809992,WALNUT HILLS,2313,139018837,1,"CINC, OH 45207",BLACK,MALE,24,NONFATAL,07/18/2013 12:00:00 AM,JUL,095000,9,THU,139018837,07/18/2013 09:50:00 AM,DISTRICT 4,45206
4,16XX SPARKLE DR,39.205644130206,-84.4591773989774,ROSELAWN,240,40805534,1,,BLACK,MALE,17,FATAL,07/31/2008 12:00:00 AM,JUL,,N/A,THU,40805534,07/31/2008 12:00:00 AM,DISTRICT 4,45237
3,19XX MILLVALE CT,39.1489330445393,-84.5529762926817,MILLVALE,2816,149028581,1,"CINCINNATI, OH 45211",WHITE,MALE,29,FATAL,11/08/2014 12:00:00 AM,NOV,021000,2,SAT,149028581,11/08/2014 02:10:00 AM,DISTRICT 3,45225
2,58XX CHANDLER ST,39.1627683334776,-84.3936227344714,MADISONVILLE,707,20904210,1,,BLACK,MALE,34,FATAL,09/05/2009 12:00:00 AM,SEP,,N/A,SAT,20904210,09/05/2009 12:00:00 AM,DISTRICT 2,45227
4,23XX KEMPER LN,39.1247678518018,-84.4877091207989,WALNUT HILLS,3217,159026811,1,"CINCINNATI, OH 45206",BLACK,MALE,53,NONFATAL,09/28/2015 12:00:00 AM,SEP,235000,23,MON,159026811,09/28/2015 11:50:00 PM,DISTRICT 4,
2,33XX FAIRFIELD AV,39.1368134230257,-84.4725724860036,EVANSTON,3644,169023165,1,"CINCINNATI, OH 45223",BLACK,MALE,37,NONFATAL,09/07/2016 12:00:00 AM,SEP,034700,3,WED,169023165,09/07/2016 03:47:00 AM,DISTRICT 2,
1,8XX YORK ST,39.1176979286799,-84.5291144192023,WEST END,2004,129031071,1,"CINC, OH 45202",BLACK,MALE,17,NONFATAL,10/24/2012 12:00:00 AM,OCT,195800,19,WED,129031071,10/24/2012 07:58:00 PM,DISTRICT 1,45214
4,16XX CREST HILL AV,39.2044714630523,-84.4584752006801,ROSELAWN,3437,169008540,1,"CINCINNATI, OH 45237",BLACK,MALE,20,FATAL,04/12/2016 12:00:00 AM,APR,180500,18,TUE,169008540,04/12/2016 06:05:00 PM,DISTRICT 4,
3,17XX WEBER AV,39.1556528896613,-84.5481602657302,SOUTH CUMMINSVILLE,2737,149022204,1,"CIN, OH 45204",BLACK,MALE,21,FATAL,09/04/2014 12:00:00 AM,SEP,194500,19,THU,149022204,09/04/2014 07:45:00 PM,DISTRICT 3,45223
3,35XX MCHENRY AV,39.1504432045968,-84.5654947643128,EAST WESTWOOD,1540,31107316,1,"CINC, OH 45231",BLACK,MALE,20,NONFATAL,08/19/2011 12:00:00 AM,AUG,205000,20,FRI,31107316,08/19/2011 08:50:00 PM,DISTRICT 3,45225
4,13XX YARMOUTH AV,39.1739805209047,-84.4750254787048,BOND HILL,2867,149033165,1,"CINC, OH 45237",BLACK,MALE,17,NONFATAL,12/30/2014 12:00:00 AM,DEC,212000,21,TUE,149033165,12/30/2014 09:20:00 PM,DISTRICT 4,45237
1,8XX YORK ST,39.1169188840711,-84.5274690273484,WEST END,979,11001978,1,,WHITE,MALE,21,NONFATAL,05/24/2010 12:00:00 AM,MAY,,N/A,MON,11001978,05/24/2010 12:00:00 AM,DISTRICT 1,45214
1,8XX DAYTON ST,39.1174822571337,-84.5275426137317,WEST END,3504,169014145,1,"CINCINNATI, OH 45211",BLACK,MALE,26,NONFATAL,06/13/2016 12:00:00 AM,JUN,010600,1,MON,169014145,06/13/2016 01:06:00 AM,DISTRICT 1,
3,19XX WESTWOOD NORTHERN BLVD,39.1433498132314,-84.558513716103,ENGLISH WOODS,2640,149013802,1,"CINTI, OH 45225",BLACK,MALE,29,NONFATAL,06/12/2014 12:00:00 AM,JUN,020000,2,THU,149013802,06/12/2014 02:00:00 AM,DISTRICT 3,45225
4,5XX HALE AV,39.1404674234627,-84.497207900606,AVONDALE,2310,139018605,1,"CINC, OH 45206",BLACK,MALE,29,NONFATAL,07/16/2013 12:00:00 AM,JUL,200000,20,TUE,139018605,07/16/2013 08:00:00 PM,DISTRICT 4,45229
4,20XX READING RD,39.118635103474,-84.501069857353,WALNUT HILLS,2520,149002431,1,"WILMINGTON, OH 45177",WHITE,MALE,31,NONFATAL,02/01/2014 12:00:00 AM,FEB,212000,21,SAT,149002431,02/01/2014 09:20:00 PM,DISTRICT 4,45206
4,8XX BUENA VISTA PL,39.1349498906298,-84.488612234654,WALNUT HILLS,396,40809132,2,,BLACK,MALE,33,NONFATAL,12/07/2008 12:00:00 AM,DEC,,N/A,SUN,40809132,12/07/2008 12:00:00 AM,DISTRICT 4,45206
3,27XX FABER AV,39.1382090774712,-84.5770744213047,WESTWOOD,1717,129001426,1,"CINC, OH 45211",BLACK,MALE,16,NONFATAL,01/17/2012 12:00:00 AM,JAN,201100,20,TUE,129001426,01/17/2012 08:11:00 PM,DISTRICT 3,45211
5,60XX LANTANA AV,39.1999348635023,-84.5420136870152,COLLEGE HILL,106,50802382,1,,BLACK,MALE,20,NONFATAL,05/01/2008 12:00:00 AM,MAY,,N/A,THU,50802382,05/01/2008 12:00:00 AM,DISTRICT 5,45224
1,3XX E THIRTEENTH ST,39.1099986851779,-84.5103091829593,PENDLETON,808,10905871,1,,BLACK,MALE,23,NONFATAL,12/13/2009 12:00:00 AM,DEC,,N/A,SUN,10905871,12/13/2009 12:00:00 AM,DISTRICT 1,45202
4,7XX LINDSAY AL,39.1254316673554,-84.4931541350906,WALNUT HILLS,1733,129003444,1,"CINC, OH 45237",BLACK,MALE,31,NONFATAL,02/03/2012 12:00:00 AM,FEB,190500,19,FRI,129003444,02/03/2012 07:05:00 PM,DISTRICT 4,45206
5,52XX EASTKNOLL CT,39.1892392951792,-84.5733115020584,MOUNT AIRY,1968,129027340,1,0,BLACK,MALE,112,FATAL,09/22/2012 12:00:00 AM,SEP,150200,15,SAT,129027340,09/22/2012 03:02:00 PM,DISTRICT 5,45239
4,34XX RIDGEWAY AV,39.1417614173016,-84.4858829830451,AVONDALE,3205,159025294,1,"BETHEL, OH 45106",WHITE,MALE,34,NONFATAL,09/16/2015 12:00:00 AM,SEP,004000,0,WED,159025294,09/16/2015 12:40:00 AM,DISTRICT 4,
4,46XX PADDOCK RD,39.1692640611789,-84.4785478430689,BOND HILL,1690,41108279,1,"CINC, OH 45237",BLACK,FEMALE,21,NONFATAL,12/29/2011 12:00:00 AM,DEC,213400,21,THU,41108279,12/29/2011 09:34:00 PM,DISTRICT 4,45229
3,37XX W LIBERTY ST,39.1162118469008,-84.5756328583769,WEST PRICE HILL,1635,31109674,1,"CINC, OH",WHITE,MALE,39,NONFATAL,11/06/2011 12:00:00 AM,NOV,100000,10,SUN,31109674,11/06/2011 10:00:00 AM,DISTRICT 3,45205
2,34XX EVANSTON AV,39.1391060089873,-84.4628940400514,EVANSTON,1624,21104643,2,"CINC, OH 45207",BLACK,FEMALE,13,NONFATAL,10/28/2011 12:00:00 AM,OCT,230000,23,FRI,21104643,10/28/2011 11:00:00 PM,DISTRICT 2,45207
1,16XX RACE ST,39.1137661744552,-84.5179004696496,OVER-THE-RHINE,1343,11101222,1,"C/O, 45210",BLACK,MALE,32,NONFATAL,04/03/2011 12:00:00 AM,APR,145000,14,SUN,11101222,04/03/2011 02:50:00 PM,DISTRICT 1,45202
4,34XX HARVEY AV,39.1438187044891,-84.4985447007344,AVONDALE,3624,169022070,1,,BLACK,MALE,19,NONFATAL,08/28/2016 12:00:00 AM,AUG,021500,2,SUN,169022070,08/28/2016 02:15:00 AM,DISTRICT 4,
3,36XX MCHENRY AV,39.1506190945024,-84.5625727443083,EAST WESTWOOD,3141,159020396,1,"CINCINNATI, OH 45216",BLACK,MALE,44,NONFATAL,08/02/2015 12:00:00 AM,AUG,005400,0,SUN,159020396,08/02/2015 12:54:00 AM,DISTRICT 3,45225
1,17XX VINE ST,39.1154478996017,-84.515964326345,OVER-THE-RHINE,3752,169032682,1,,BLACK,MALE,27,NONFATAL,12/13/2016 12:00:00 AM,DEC,195000,19,TUE,169032682,12/13/2016 07:50:00 PM,DISTRICT 1,
5,59XX HAMILTON AV,39.1993098326183,-84.5466488443008,COLLEGE HILL,477,50901101,4,,,,109,NONFATAL,03/03/2009 12:00:00 AM,MAR,,N/A,TUE,50901101,03/03/2009 12:00:00 AM,DISTRICT 5,45224
3,41XX PRESIDENT DR,39.1567394577424,-84.5576698469384,FAYE APARTMENTS,469,30901392,1,,BLACK,MALE,21,NONFATAL,02/20/2009 12:00:00 AM,FEB,,N/A,FRI,30901392,02/20/2009 12:00:00 AM,DISTRICT 3,45225
5,3XX LUDLOW AV,39.1442596863287,-84.521211328208,CLIFTON,719,50905541,1,,UNKNOWN,MALE,41,NONFATAL,09/13/2009 12:00:00 AM,SEP,,N/A,SUN,50905541,09/13/2009 12:00:00 AM,DISTRICT 5,45220
4,84XX ANTHONY WAYNE  AV,39.2164134083533,-84.4620219553445,CARTHAGE,2397,139027049,1,,BLACK,MALE,26,FATAL,09/27/2013 12:00:00 AM,SEP,002000,0,FRI,139027049,09/27/2013 12:20:00 AM,DISTRICT 4,
3,19XX BRINKMEIER AV,39.1379041591448,-84.5606538654703,NORTH FAIRMOUNT,2847,149031885,2,"CINTI, OH 45206",BLACK,MALE,17,NONFATAL,12/15/2014 12:00:00 AM,DEC,214500,21,MON,149031885,12/15/2014 09:45:00 PM,DISTRICT 3,45225
1,18XX ELM ST,39.1164684399675,-84.5203793712936,OVER-THE-RHINE,2346,139021494,4,"CINC, OH 45202",BLACK,MALE,14,NONFATAL,08/12/2013 12:00:00 AM,AUG,230400,23,MON,139021494,08/12/2013 11:04:00 PM,DISTRICT 1,45202
3,20XX FARADAY RD,39.1530686942261,-84.557484612263,SOUTH CUMMINSVILLE,1794,129009468,1,"CINC, OH 45232",BLACK,MALE,26,NONFATAL,04/15/2012 12:00:00 AM,APR,00000000000000.000,0,SUN,129009468,04/15/2012 12:00:00 AM,DISTRICT 3,45225
3,23XX BALTIMORE AV,39.1503748644539,-84.5609707323914,EAST WESTWOOD,2840,149031671,2,"CINCINNATI, OH 45204",BLACK,MALE,19,NONFATAL,12/13/2014 12:00:00 AM,DEC,123500,12,SAT,149031671,12/13/2014 12:35:00 PM,DISTRICT 3,45225
2,17XX HEWITT AV,39.1367217913989,-84.4728369162363,EVANSTON,2918,159006351,1,"CINCINNATI, OH 45208",BLACK,MALE,25,NONFATAL,03/18/2015 12:00:00 AM,MAR,111900,11,WED,159006351,03/18/2015 11:19:00 AM,DISTRICT 2,45207
3,35XX MCHENRY AV,39.1508769368875,-84.5669465849552,EAST WESTWOOD,228,30807234,1,,BLACK,MALE,28,NONFATAL,07/26/2008 12:00:00 AM,JUL,,N/A,SAT,30807234,07/26/2008 12:00:00 AM,DISTRICT 3,45225
5,15XX W NORTH BEND RD,39.203853279959,-84.5454937966268,COLLEGE HILL,2728,149021027,1,"CINC, OH 45224",BLACK,MALE,28,FATAL,08/23/2014 12:00:00 AM,AUG,201800,20,SAT,149021027,08/23/2014 08:18:00 PM,DISTRICT 5,45224
4,25XX GILBERT AV,39.1256227400557,-84.4903493873587,WALNUT HILLS,3664,169025042,2,"CINCINNATI, OH 45211",BLACK,FEMALE,26,NONFATAL,09/26/2016 12:00:00 AM,SEP,042200,4,MON,169025042,09/26/2016 04:22:00 AM,DISTRICT 4,
1,XX GREEN ST,39.1144337413623,-84.5175004316965,OVER-THE-RHINE,1067,11003457,1,"CINC., OH 45231",BLACK,MALE,33,NONFATAL,08/08/2010 12:00:00 AM,AUG,,N/A,SUN,11003457,08/08/2010 12:00:00 AM,DISTRICT 1,45202
4,29XX GILBERT AV,39.1317992351553,-84.4877082271176,WALNUT HILLS,1239,41007897,1,"CINC, OH 45206",BLACK,MALE,42,NONFATAL,12/09/2010 12:00:00 AM,DEC,,N/A,THU,41007897,12/09/2010 12:00:00 AM,DISTRICT 4,45206
4,48XX READING RD,39.175430835184,-84.4662816708762,BOND HILL,1720,129001799,1,"CINC, OH 45237",BLACK,MALE,17,FATAL,01/18/2012 12:00:00 AM,JAN,235300,23,WED,129001799,01/18/2012 11:53:00 PM,DISTRICT 4,45237
1,17XX LANG ST,39.1156732448886,-84.5146322545234,OVER-THE-RHINE,3473,169011934,1,"CINCINNATI, OH 45214",BLACK,MALE,33,NONFATAL,05/20/2016 12:00:00 AM,MAY,002100,0,FRI,169011934,05/20/2016 12:21:00 AM,DISTRICT 1,
1,XX WEST ELDER ST,39.1148051005657,-84.5173433412476,OVER-THE-RHINE,335,10805213,1,,BLACK,MALE,24,FATAL,10/16/2008 12:00:00 AM,OCT,,N/A,THU,10805213,10/16/2008 12:00:00 AM,DISTRICT 1,45202
5,49XX HAWAIIAN TE,39.1834032850752,-84.563450408483,MOUNT AIRY,2921,159006619,1,"CINCINNATI, OH 45223",BLACK,MALE,55,NONFATAL,03/21/2015 12:00:00 AM,MAR,003500,0,SAT,159006619,03/21/2015 12:35:00 AM,DISTRICT 5,45223
4,83XX ANTHONY WAYNE AV,39.2151558948135,-84.4625653980875,HARTWELL,1542,41105332,2,"CINC, OH 45216",WHITE,MALE,111,NONFATAL,08/20/2011 12:00:00 AM,AUG,024000,2,SAT,41105332,08/20/2011 02:40:00 AM,DISTRICT 4,45216
4,9XX CLEVELAND AV,39.1430659649591,-84.4858632158822,AVONDALE,1561,41105788,2,"CINC, OH 45229",BLACK,MALE,43,NONFATAL,09/08/2011 12:00:00 AM,SEP,163700,16,THU,41105788,09/08/2011 04:37:00 PM,DISTRICT 4,45229
4,34XX HARVEY AV,39.1432800649707,-84.497419371952,AVONDALE,941,41002002,1,,BLACK,MALE,24,FATAL,04/12/2010 12:00:00 AM,APR,,N/A,MON,41002002,04/12/2010 12:00:00 AM,DISTRICT 4,45229
4,2XX MCCORMICK PL,39.1255091410263,-84.5081126777946,MOUNT AUBURN,3824,179004236,1,,BLACK,MALE,28,FATAL,02/14/2017 12:00:00 AM,FEB,150600,15,TUE,179004236,02/14/2017 03:06:00 PM,DISTRICT 4,
4,XX GLENCOE PL,39.1237070341742,-84.5102257092252,MOUNT AUBURN,854,41000532,1,,BLACK,MALE,37,NONFATAL,01/28/2010 12:00:00 AM,JAN,,N/A,THU,41000532,01/28/2010 12:00:00 AM,DISTRICT 4,45219
3,19XX QUEEN CITY AV,39.1268104051667,-84.5628760054795,SOUTH FAIRMOUNT,402,30812532,1,,WHITE,MALE,27,NONFATAL,12/16/2008 12:00:00 AM,DEC,,N/A,TUE,30812532,12/16/2008 12:00:00 AM,DISTRICT 3,45214
1,5XX YORK ST,39.1163836275608,-84.5256892674914,WEST END,3164,159022579,1,"CINCINNATI, OH",BLACK,FEMALE,38,NONFATAL,08/21/2015 12:00:00 AM,AUG,234000,23,FRI,159022579,08/21/2015 11:40:00 PM,DISTRICT 1,45214
3,22XX HARRISON AV,39.1348204257409,-84.5737020974859,WESTWOOD,1917,129021718,1,"OWENTON, KY 40359",WHITE,MALE,19,NONFATAL,08/04/2012 12:00:00 AM,AUG,233800,23,SAT,129021718,08/04/2012 11:38:00 PM,DISTRICT 3,45211
4,33XX HARVEY AV,39.1400506152103,-84.4988601537758,AVONDALE,3099,159017402,2,"CINC, OH 45238",BLACK,MALE,26,NONFATAL,07/05/2015 12:00:00 AM,JUL,135700,13,SUN,159017402,07/05/2015 01:57:00 PM,DISTRICT 4,45229
1,8XX W LIBERTY ST,39.1129138915363,-84.5287413690413,WEST END,119,10802235,1,,BLACK,MALE,19,NONFATAL,05/16/2008 12:00:00 AM,MAY,,N/A,FRI,10802235,05/16/2008 12:00:00 AM,DISTRICT 1,45214
5,30XX COLERAIN AV,39.13728810597,-84.5373661071179,CAMP WASHINGTON,2055,129036958,1,"CINC, OH 45239",BLACK,MALE,36,NONFATAL,12/21/2012 12:00:00 AM,DEC,034500,3,FRI,129036958,12/21/2012 03:45:00 AM,DISTRICT 5,45225
1,4XX ELIZABETH ST,39.1065143388401,-84.5212154261339,WEST END,959,11001700,1,,WHITE,MALE,29,NONFATAL,05/07/2010 12:00:00 AM,MAY,,N/A,FRI,11001700,05/07/2010 12:00:00 AM,DISTRICT 1,45202
3,17XX FAIRMOUNT AV,39.1301637208889,-84.5524987228414,SOUTH FAIRMOUNT,1641,31109800,1,"CINC, OH 45213",BLACK,MALE,18,NONFATAL,11/09/2011 12:00:00 AM,NOV,224000,22,WED,31109800,11/09/2011 10:40:00 PM,DISTRICT 3,45214
4,8XX GLENWOOD AV,39.1470320380579,-84.4877734674905,AVONDALE,3719,169028722,1,,BLACK,MALE,18,NONFATAL,11/02/2016 12:00:00 AM,NOV,165500,16,WED,169028722,11/02/2016 04:55:00 PM,DISTRICT 4,
1,11XX MAIN ST,39.1070138511367,-84.5110450840412,OVER-THE-RHINE,2646,149014021,2,"CINTI, OH 45202",BLACK,MALE,30,NONFATAL,06/14/2014 12:00:00 AM,JUN,023400,2,SAT,149014021,06/14/2014 02:34:00 AM,DISTRICT 1,45202
4,27XX ASHLAND AV,39.1283350534555,-84.483659802161,WALNUT HILLS,816,40908634,1,,BLACK,MALE,41,NONFATAL,12/15/2009 12:00:00 AM,DEC,,N/A,TUE,40908634,12/15/2009 12:00:00 AM,DISTRICT 4,45206
3,32XX BEEKMAN ST,39.1457707386487,-84.5514027655848,MILLVALE,3328,159033522,1,"CINCINNATI, OH 45219",WHITE,FEMALE,27,NONFATAL,12/14/2015 12:00:00 AM,DEC,180000,18,MON,159033522,12/14/2015 06:00:00 PM,DISTRICT 3,
3,27XX EAST TOWER DR,39.1294716803026,-84.5946304374794,WESTWOOD,1718,129001424,1,"CINC, OH 45205",BLACK,MALE,21,NONFATAL,01/18/2012 12:00:00 AM,JAN,015000,1,WED,129001424,01/18/2012 01:50:00 AM,DISTRICT 3,45238
3,33XX BOWLING GREEN CT,39.1441884409542,-84.5539856736358,MILLVALE,2480,139033761,1,"CINC, OH 45223",BLACK,MALE,28,FATAL,12/16/2013 12:00:00 AM,DEC,203000,20,MON,139033761,12/16/2013 08:30:00 PM,DISTRICT 3,45225
4,35XX READING RD,39.1450148727991,-84.4906567872169,AVONDALE,1023,41003768S1,1,,BLACK,MALE,21,NONFATAL,06/24/2010 12:00:00 AM,JUN,,N/A,THU,41003768S1,06/24/2010 12:00:00 AM,DISTRICT 4,45229
4,5XX HALE AV,39.1404947955736,-84.4954430307966,AVONDALE,66,40802036,1,,BLACK,MALE,17,NONFATAL,03/31/2008 12:00:00 AM,MAR,,N/A,MON,40802036,03/31/2008 12:00:00 AM,DISTRICT 4,45229
4,5XX ROCKDALE AV,39.1447678870628,-84.4947203150607,AVONDALE,3105,159017577,1,"CINCINNATI, OH 45214",BLACK,MALE,28,NONFATAL,07/07/2015 12:00:00 AM,JUL,172000,17,TUE,159017577,07/07/2015 05:20:00 PM,DISTRICT 4,45229
4,4XX KASOTA ST,39.1406537143751,-84.4999331591463,AVONDALE,3688,169026626,1,,BLACK,FEMALE,20,NONFATAL,10/11/2016 12:00:00 AM,OCT,223000,22,TUE,169026626,10/11/2016 10:30:00 PM,DISTRICT 4,
3,32XX BOWLING GREEN CT,39.1431075057525,-84.5522637508336,MILLVALE,3122,159018788,1,"CINCINNATI, OH 45239",BLACK,MALE,23,NONFATAL,07/18/2015 12:00:00 AM,JUL,211600,21,SAT,159018788,07/18/2015 09:16:00 PM,DISTRICT 3,45225
4,39XX DICKSON AV,39.157039219484,-84.4935661612062,NORTH AVONDALE,3528,169015461,1,"CINCINNATI, OH 45214",BLACK,MALE,27,NONFATAL,06/25/2016 12:00:00 AM,JUN,173000,17,SAT,169015461,06/25/2016 05:30:00 PM,DISTRICT 4,
3,9XX ELBERON AV,39.1090035763535,-84.5660802540688,EAST PRICE HILL,2934,159007095,2,"CINCI, OH 45205",BLACK,MALE,17,NONFATAL,03/25/2015 12:00:00 AM,MAR,222000,22,WED,159007095,03/25/2015 10:20:00 PM,DISTRICT 3,45205
5,6XX S I75 EX,39.1637486052579,-84.5102806180853,SPRING GROVE VILLAGE,827,50907717,1,,BLACK,MALE,30,NONFATAL,12/26/2009 12:00:00 AM,DEC,,N/A,SAT,50907717,12/26/2009 12:00:00 AM,DISTRICT 5,45232
4,5XX BLAIR AV,39.1420190782972,-84.4922968050673,AVONDALE,1384,41102732,1,"CINC, OH 45229",BLACK,MALE,22,FATAL,05/05/2011 12:00:00 AM,MAY,165600,16,THU,41102732,05/05/2011 04:56:00 PM,DISTRICT 4,45229
3,32XX BEEKMAN ST,39.1422590188721,-84.5512344136255,MILLVALE,591,30905016,2,,WHITE,MALE,34,NONFATAL,06/05/2009 12:00:00 AM,JUN,,N/A,FRI,30905016,06/05/2009 12:00:00 AM,DISTRICT 3,45225
1,13XX VINE ST,39.1087706117311,-84.5143790902355,OVER-THE-RHINE,688,10904045,1,,WHITE,MALE,54,NONFATAL,08/23/2009 12:00:00 AM,AUG,,N/A,SUN,10904045,08/23/2009 12:00:00 AM,DISTRICT 1,45202
1,2XX ETON PL,39.1173909963267,-84.5203840377713,OVER-THE-RHINE,1316,11100868,1,"CINC., OH 45217",BLACK,MALE,30,FATAL,03/07/2011 12:00:00 AM,MAR,030000,3,MON,11100868,03/07/2011 03:00:00 AM,DISTRICT 1,45202
3,30XX WESTWOOD NORTHERN BV,39.1596834683929,-84.5978695264413,WESTWOOD,2018,129032821,1,"FAIRFIELD, OH 45011",BLACK,MALE,17,NONFATAL,11/10/2012 12:00:00 AM,NOV,102300,10,SAT,129032821,11/10/2012 10:23:00 AM,DISTRICT 3,45211
4,37XX BONFIELD DR,39.1508936034056,-84.5025524630539,AVONDALE,1629,41107029,1,"CINC, OH 45229",BLACK,MALE,33,NONFATAL,10/31/2011 12:00:00 AM,OCT,225000,22,MON,41107029,10/31/2011 10:50:00 PM,DISTRICT 4,45220
3,21XX QUEEN CITY AV,39.1287608252114,-84.5705007359473,SOUTH FAIRMOUNT,3819,179003971,1,,BLACK,MALE,21,NONFATAL,02/12/2017 12:00:00 AM,FEB,000100,0,SUN,179003971,02/12/2017 12:01:00 AM,DISTRICT 3,
1,18XX ELM ST,39.1160684399675,-84.5200393712936,OVER-THE-RHINE,2348,139021494,4,"WYDAANCH, NY 11798",BLACK,MALE,39,NONFATAL,08/12/2013 12:00:00 AM,AUG,230400,23,MON,139021494,08/12/2013 11:04:00 PM,DISTRICT 1,45202
3,16XX DENHAM ST,39.1355097280375,-84.5482899092811,NORTH FAIRMOUNT,683,30907763,2,,BLACK,MALE,19,NONFATAL,08/18/2009 12:00:00 AM,AUG,,N/A,TUE,30907763,08/18/2009 12:00:00 AM,DISTRICT 3,45225
3,8XX MCPHERSON AV,39.1072449002178,-84.5717319084923,EAST PRICE HILL,1589,31108575,1,"CINC, OH 45205",WHITE,MALE,23,NONFATAL,09/29/2011 12:00:00 AM,SEP,162000,16,THU,31108575,09/29/2011 04:20:00 PM,DISTRICT 3,45205
3,71XX RIVER RD,39.1223072372829,-84.7015019844386,SAYLER PARK,1246,31012502,1,"CINC, OH 45233",WHITE,FEMALE,20,NONFATAL,12/15/2010 12:00:00 AM,DEC,,N/A,WED,31012502,12/15/2010 12:00:00 AM,DISTRICT 3,45233
1,8XX LINN ST,39.1031904657247,-84.5302234755015,QUEENSGATE,1402,11102066,1,"LOUISVILLE, KY 40202",BLACK,MALE,22,NONFATAL,05/20/2011 12:00:00 AM,MAY,224500,22,FRI,11102066,05/20/2011 10:45:00 PM,DISTRICT 1,45203
4,5XX FOREST AV,39.1453279860751,-84.4957896957524,AVONDALE,398,40809182,1,,BLACK,MALE,48,NONFATAL,12/09/2008 12:00:00 AM,DEC,,N/A,TUE,40809182,12/09/2008 12:00:00 AM,DISTRICT 4,45229
3,41XX HEYWARD ST,39.1215652520616,-84.5798321011482,WEST PRICE HILL,2330,139020419,1,"CINCINNATI, OH 45205",BLACK,MALE,20,FATAL,08/01/2013 12:00:00 AM,AUG,200800,20,THU,139020419,08/01/2013 08:08:00 PM,DISTRICT 3,45205
5,53XX WINNESTE AV,39.1886279011581,-84.5140704978531,WINTON HILLS,1449,51103385,1,"CIN, OH 45219",BLACK,MALE,22,NONFATAL,06/21/2011 12:00:00 AM,JUN,021000,2,TUE,51103385,06/21/2011 02:10:00 AM,DISTRICT 5,45232
3,12XX WESSELS AV,39.1138591641465,-84.5727159098691,EAST PRICE HILL,2051,129036780,3,"CINCINNATI, OH 45205",BLACK,MALE,31,NONFATAL,12/17/2012 12:00:00 AM,DEC,231000,23,MON,129036780,12/17/2012 11:10:00 PM,DISTRICT 3,45205
4,29XX GILBERT AV,39.1340429122979,-84.4873882708623,WALNUT HILLS,386,40808847,1,,BLACK,MALE,29,NONFATAL,11/24/2008 12:00:00 AM,NOV,,N/A,MON,40808847,11/24/2008 12:00:00 AM,DISTRICT 4,45206
4,DX,37.7967283903993,-89.3176336578326,,3777,179000413,1,,BLACK,MALE,43,NONFATAL,01/05/2017 12:00:00 AM,JAN,043000,4,THU,179000413,01/05/2017 04:30:00 AM,DISTRICT 4,
1,16XX WALNUT ST,39.1135378469392,-84.5143280396209,OVER-THE-RHINE,1888,129019827,2,"CINCI, OH 45225",BLACK,MALE,30,FATAL,07/18/2012 12:00:00 AM,JUL,123100,12,WED,129019827,07/18/2012 12:31:00 PM,DISTRICT 1,45202
4,7XX RIDGEWAY AV,39.1375040674454,-84.4941304965885,AVONDALE,2523,149002751,1,"CINC, OH 45229",BLACK,FEMALE,19,NONFATAL,02/05/2014 12:00:00 AM,FEB,162100,16,WED,149002751,02/05/2014 04:21:00 PM,DISTRICT 4,45229
5,2XX KLOTTER AV,39.12199520793,-84.5230551081928,CUF,1205,51006836,1,"CINC, OH 45219",WHITE,MALE,18,NONFATAL,11/07/2010 12:00:00 AM,NOV,,N/A,SUN,51006836,11/07/2010 12:00:00 AM,DISTRICT 5,45219
4,34XX KNOTT ST,39.1437267554134,-84.4938299947817,AVONDALE,2497,149000531,2,"CINC, OH 45229",BLACK,MALE,31,FATAL,01/09/2014 12:00:00 AM,JAN,013000,1,THU,149000531,01/09/2014 01:30:00 AM,DISTRICT 4,45229
3,16XX DENHAM ST,39.1349597280375,-84.5492799092811,NORTH FAIRMOUNT,682,30907763,2,,BLACK,MALE,32,NONFATAL,08/18/2009 12:00:00 AM,AUG,,N/A,TUE,30907763,08/18/2009 12:00:00 AM,DISTRICT 3,45225
4,25XX HIGHLAND AV,39.1258359117839,-84.5036190612073,CORRYVILLE,248,40805863,1,,BLACK,MALE,56,FATAL,08/10/2008 12:00:00 AM,AUG,,N/A,SUN,40805863,08/10/2008 12:00:00 AM,DISTRICT 4,45219
4,34XX HARVEY AV,39.1448022552118,-84.4972513503486,AVONDALE,2034,129034662,1,"CINC, OH 45229",BLACK,MALE,21,NONFATAL,11/24/2012 12:00:00 AM,NOV,214500,21,SAT,129034662,11/24/2012 09:45:00 PM,DISTRICT 4,45229
3,19XX WESTMONT LN,39.1229200770744,-84.5726343513528,WEST PRICE HILL,1952,129025461,1,"CINC, OH 45205",BLACK,MALE,33,NONFATAL,09/06/2012 12:00:00 AM,SEP,030000,3,THU,129025461,09/06/2012 03:00:00 AM,DISTRICT 3,45205
3,16XX BALTIMORE AV,39.1344269360883,-84.5480890720798,NORTH FAIRMOUNT,2553,149005300,1,45238,BLACK,MALE,45,FATAL,03/12/2014 12:00:00 AM,MAR,003000,0,WED,149005300,03/12/2014 12:30:00 AM,DISTRICT 3,45225
3,25XX BEEKMAN ST,39.1308677981401,-84.5452435655078,NORTH FAIRMOUNT,625,30906229,1,,BLACK,MALE,40,NONFATAL,07/05/2009 12:00:00 AM,JUL,,N/A,SUN,30906229,07/05/2009 12:00:00 AM,DISTRICT 3,45225
4,31XX HARVEY AV,39.1356600092687,-84.4987790086778,AVONDALE,2800,149027182,1,"CINC, OH 45237",BLACK,MALE,26,NONFATAL,10/24/2014 12:00:00 AM,OCT,141700,14,FRI,149027182,10/24/2014 02:17:00 PM,DISTRICT 4,45229
3,22XX QUEBEC RD,39.1234000777983,-84.5647138212945,SOUTH FAIRMOUNT,3172,159022584,1,"CINCINNATI, OH 452",BLACK,MALE,22,NONFATAL,08/22/2015 12:00:00 AM,AUG,000200,0,SAT,159022584,08/22/2015 12:02:00 AM,DISTRICT 3,45214
3,23XX BALTIMORE AV,39.1496277339835,-84.5610526911699,EAST WESTWOOD,3319,159033043,4,"CINCINNATI, OH 45217",BLACK,MALE,18,NONFATAL,12/08/2015 12:00:00 AM,DEC,182500,18,TUE,159033043,12/08/2015 06:25:00 PM,DISTRICT 3,
5,DX,37.7966183903993,-89.3169836578326,,3197,999999999,1,"CINCINNATI, OH 45229",BLACK,MALE,26,NONFATAL,09/11/2015 12:00:00 AM,SEP,233300,23,FRI,999999999,09/11/2015 11:33:00 PM,DISTRICT 5,
3,16XX QUEEN CITY AV,39.1253459604024,-84.5521148772984,SOUTH FAIRMOUNT,3567,169017869,1,"CINCINNATI, OH 45214",BLACK,MALE,17,NONFATAL,07/18/2016 12:00:00 AM,JUL,152000,15,MON,169017869,07/18/2016 03:20:00 PM,DISTRICT 3,
4,50XX READING RD,39.1774107665227,-84.4656069845342,BOND HILL,3043,159013976,1,"CINC, OH 45237",BLACK,MALE,26,FATAL,06/01/2015 12:00:00 AM,JUN,133500,13,MON,159013976,06/01/2015 01:35:00 PM,DISTRICT 4,45237
5,8XX DUTCH COLONY DR,39.1913387160619,-84.5184144241557,WINTON HILLS,3591,169018895,1,"CINCINNATI, OH 45227",BLACK,MALE,19,NONFATAL,07/27/2016 12:00:00 AM,JUL,142000,14,WED,169018895,07/27/2016 02:20:00 PM,DISTRICT 5,
3,17XX ESMONDE ST,39.1239107730096,-84.5557539660197,SOUTH FAIRMOUNT,659,30907128,1,,BLACK,MALE,25,NONFATAL,08/01/2009 12:00:00 AM,AUG,,N/A,SAT,30907128,08/01/2009 12:00:00 AM,DISTRICT 3,45214
5,6XX DUTCH COLONY DR,39.190420395664,-84.5141329606978,WINTON HILLS,1359,51101977,1,,UNKNOWN,MALE,111,NONFATAL,04/17/2011 12:00:00 AM,APR,123000,12,SUN,51101977,04/17/2011 12:30:00 PM,DISTRICT 5,45232
1,XX E MCMICKEN AV,39.1151375892991,-84.5153472730167,OVER-THE-RHINE,2070,139000216,1,"CINC, OH 45205",BLACK,MALE,28,NONFATAL,01/05/2013 12:00:00 AM,JAN,165500,16,SAT,139000216,01/05/2013 04:55:00 PM,DISTRICT 1,45202
4,35XX READING RD,39.1448204753041,-84.4912371333725,AVONDALE,3008,159011724,1,"CINCINNATI, OH 45229",BLACK,MALE,56,NONFATAL,05/11/2015 12:00:00 AM,MAY,123900,12,MON,159011724,05/11/2015 12:39:00 PM,DISTRICT 4,45229
2,35XX MONTGOMERY RD,39.1418294191294,-84.4721433034891,EVANSTON,3687,169026567,1,"CINCINNATI, OH 45207",BLACK,MALE,19,NONFATAL,10/11/2016 12:00:00 AM,OCT,121500,12,TUE,169026567,10/11/2016 12:15:00 PM,DISTRICT 2,
4,35XX BURNET AV,39.1451049542856,-84.5006381723327,AVONDALE,889,41001328,1,,BLACK,MALE,19,NONFATAL,03/15/2010 12:00:00 AM,MAR,,N/A,MON,41001328,03/15/2010 12:00:00 AM,DISTRICT 4,45229
3,34XX HAZELWOOD AV,39.1508079578475,-84.5968766982292,WESTWOOD,1987,129029095,1,"CINC, OH 45211",BLACK,MALE,26,NONFATAL,10/08/2012 12:00:00 AM,OCT,221500,22,MON,129029095,10/08/2012 10:15:00 PM,DISTRICT 3,45211
1,17XX LANG ST,39.1142940342433,-84.5140383265431,OVER-THE-RHINE,515,10901407,1,,BLACK,MALE,22,NONFATAL,04/07/2009 12:00:00 AM,APR,,N/A,TUE,10901407,04/07/2009 12:00:00 AM,DISTRICT 1,45202
3,11XX RUTLEDGE AV,39.1124389042037,-84.5865861078143,WEST PRICE HILL,3332,159033971,1,"CINCINNATI, OH 45205",BLACK,MALE,14,NONFATAL,12/19/2015 12:00:00 AM,DEC,184500,18,SAT,159033971,12/19/2015 06:45:00 PM,DISTRICT 3,
5,40XX DELANEY ST,39.1595304285402,-84.5440175692051,NORTHSIDE,561,50902826,1,,BLACK,MALE,20,NONFATAL,05/17/2009 12:00:00 AM,MAY,,N/A,SUN,50902826,05/17/2009 12:00:00 AM,DISTRICT 5,45223
3,19XX HARRISON AV,39.1309073761612,-84.5610946340835,SOUTH FAIRMOUNT,199,30806540,1,,BLACK,MALE,32,NONFATAL,07/10/2008 12:00:00 AM,JUL,,N/A,THU,30806540,07/10/2008 12:00:00 AM,DISTRICT 3,45214
1,8XX POPLAR ST,39.1148785131182,-84.5290114867741,WEST END,3351,169001070,2,"CINCINNATI, OH 45224",BLACK,MALE,20,NONFATAL,01/12/2016 12:00:00 AM,JAN,201500,20,TUE,169001070,01/12/2016 08:15:00 PM,DISTRICT 1,
4,23XX KENTON ST,39.1239419637922,-84.4952882994875,WALNUT HILLS,3787,179001000,1,,BLACK,MALE,37,NONFATAL,01/11/2017 12:00:00 AM,JAN,220000,22,WED,179001000,01/11/2017 10:00:00 PM,DISTRICT 4,
3,22XX HARRISON AV,39.1345092109918,-84.5741613357222,WESTWOOD,3542,169016413,1,"CINCINNATI, OHIO 4521",BLACK,MALE,75,NONFATAL,07/05/2016 12:00:00 AM,JUL,012700,1,TUE,169016413,07/05/2016 01:27:00 AM,DISTRICT 3,
2,37XX ZINSLE AV,39.1858900574874,-84.4076954233489,KENNEDY HEIGHTS,2178,139009411,1,"CINC, OH 45213",BLACK,MALE,19,NONFATAL,04/22/2013 12:00:00 AM,APR,181800,18,MON,139009411,04/22/2013 06:18:00 PM,DISTRICT 2,45213
4,16XX ANITA PL,39.1741853812698,-84.4672707851007,BOND HILL,829,40908868,1,,BLACK,MALE,19,NONFATAL,12/26/2009 12:00:00 AM,DEC,,N/A,SAT,40908868,12/26/2009 12:00:00 AM,DISTRICT 4,45237
3,22XX HARRISON AV,39.135645751411,-84.5747228337597,WESTWOOD,952,31003327,1,,BLACK,MALE,20,NONFATAL,04/20/2010 12:00:00 AM,APR,,N/A,TUE,31003327,04/20/2010 12:00:00 AM,DISTRICT 3,45211
1,20XX CENTRAL AV,39.1204447878459,-84.5250212499629,WEST END,446,10900324,3,,BLACK,MALE,19,FATAL,01/25/2009 12:00:00 AM,JAN,,N/A,SUN,10900324,01/25/2009 12:00:00 AM,DISTRICT 1,45214
1,16XX ELM ST,39.1129422295337,-84.5192782027151,OVER-THE-RHINE,623,10902977,1,,BLACK,MALE,44,FATAL,07/04/2009 12:00:00 AM,JUL,,N/A,SAT,10902977,07/04/2009 12:00:00 AM,DISTRICT 1,45202
5,53XX BAHAMA TE,39.1883514605706,-84.5660536890673,MOUNT AIRY,2967,159009891,1,"CINCINNATI, OH 45223",BLACK,MALE,48,NONFATAL,04/23/2015 12:00:00 AM,APR,102100,10,THU,159009891,04/23/2015 10:21:00 AM,DISTRICT 5,45223
5,48XX WINNESTE AV,39.1790031801324,-84.5101298448325,WINTON HILLS,2052,129036646,1,"CINC, OH 45232",BLACK,MALE,22,NONFATAL,12/18/2012 12:00:00 AM,DEC,155000,15,TUE,129036646,12/18/2012 03:50:00 PM,DISTRICT 5,45232
3,37XX WARSAW AV,39.1130088106808,-84.5747783255122,EAST PRICE HILL,2131,139006047,1,"CINC, OH 45205",BLACK,MALE,22,NONFATAL,03/15/2013 12:00:00 AM,MAR,204000,20,FRI,139006047,03/15/2013 08:40:00 PM,DISTRICT 3,45205
3,32XX WERK RD,39.1405254764041,-84.6100520812964,WESTWOOD,3686,169026525,1,"CINCINNATI, OH 45211",BLACK,MALE,18,FATAL,10/10/2016 12:00:00 AM,OCT,225200,22,MON,169026525,10/10/2016 10:52:00 PM,DISTRICT 3,
3,24XX HARRISON AV,39.139634891372,-84.5797338885355,WESTWOOD,2210,139012474,1,"CINTI, OH 45220",BLACK,MALE,28,NONFATAL,05/21/2013 12:00:00 AM,MAY,124500,12,TUE,139012474,05/21/2013 12:45:00 PM,DISTRICT 3,45211
4,23XX KENTON AV,39.1237957625611,-84.4935683758124,WALNUT HILLS,1149,41006140,1,"CINC, OH 45241",BLACK,MALE,53,NONFATAL,09/27/2010 12:00:00 AM,SEP,,N/A,MON,41006140,09/27/2010 12:00:00 AM,DISTRICT 4,45206
3,36XX W LIBERTY ST,39.1169226619841,-84.5705095791678,EAST PRICE HILL,2725,149020704,1,"CINTI, OH 45205",WHITE,MALE,29,NONFATAL,08/20/2014 12:00:00 AM,AUG,220000,22,WED,149020704,08/20/2014 10:00:00 PM,DISTRICT 3,45205
4,25XX MELROSE AV,39.1260785698086,-84.4905533306209,WALNUT HILLS,1705,129001040,1,"CINC, OH 45206",BLACK,MALE,19,NONFATAL,01/10/2012 12:00:00 AM,JAN,193000,19,TUE,129001040,01/10/2012 07:30:00 PM,DISTRICT 4,45206
3,33XX MCHENRY AV,39.1461273970705,-84.5710681782865,EAST WESTWOOD,403,30812618,1,,BLACK,MALE,40,FATAL,12/17/2008 12:00:00 AM,DEC,,N/A,WED,30812618,12/17/2008 12:00:00 AM,DISTRICT 3,45225
1,XX E MCMICKEN AV,39.1157570224437,-84.5146175729266,OVER-THE-RHINE,263,10804091,1,,BLACK,MALE,12,NONFATAL,08/18/2008 12:00:00 AM,AUG,,N/A,MON,10804091,08/18/2008 12:00:00 AM,DISTRICT 1,45202
3,9XX SETON AV,39.1079813405903,-84.5775940538398,EAST PRICE HILL,1898,129020787,1,"CINC, OH 45204",UNKNOWN,MALE,112,NONFATAL,07/27/2012 12:00:00 AM,JUL,011800,1,FRI,129020787,07/27/2012 01:18:00 AM,DISTRICT 3,45205
5,4XX KINGS RUN CT,39.1774112909686,-84.5094526089301,WINTON HILLS,2201,139011587,4,"CINC, OH 45232",BLACK,MALE,23,NONFATAL,05/13/2013 12:00:00 AM,MAY,012800,1,MON,139011587,05/13/2013 01:28:00 AM,DISTRICT 5,45232
5,53XX BAHAMA TE,39.1883371195324,-84.5659853136415,MOUNT AIRY,919,51001527,1,,BLACK,MALE,18,NONFATAL,03/27/2010 12:00:00 AM,MAR,,N/A,SAT,51001527,03/27/2010 12:00:00 AM,DISTRICT 5,45223
3,19XX SUTTER,39.1408228128396,-84.5577575582489,ENGLISH WOODS,2627,149012110,1,"CINTI, OH 45229",BLACK,FEMALE,32,NONFATAL,05/25/2014 12:00:00 AM,MAY,143000,14,SUN,149012110,05/25/2014 02:30:00 PM,DISTRICT 3,45225
4,9XX E MCMILLAN ST,39.1259590102003,-84.4893954795862,WALNUT HILLS,1383,41102709,1,"CINC, OH 45215",BLACK,MALE,21,NONFATAL,05/05/2011 12:00:00 AM,MAY,113500,11,THU,41102709,05/05/2011 11:35:00 AM,DISTRICT 4,45206
2,25XX HACKBERRY ST,39.1268202661244,-84.4761445334592,EAST WALNUT HILLS,2791,149026447,2,0,WHITE,FEMALE,24,NONFATAL,10/15/2014 12:00:00 AM,OCT,170000,17,WED,149026447,10/15/2014 05:00:00 PM,DISTRICT 2,45206
4,35XX READING RD,39.1449948728002,-84.4902767872304,AVONDALE,2548,149004945,1,"CINC, OH 45229",BLACK,FEMALE,51,NONFATAL,03/07/2014 12:00:00 AM,MAR,204000,20,FRI,149004945,03/07/2014 08:40:00 PM,DISTRICT 4,45229
4,23XX VINE ST,39.1230323060349,-84.5146978764146,MOUNT AUBURN,1499,41104634,1,"CINC, OH 45219",BLACK,MALE,34,NONFATAL,07/20/2011 12:00:00 AM,JUL,111500,11,WED,41104634,07/20/2011 11:15:00 AM,DISTRICT 4,45219
3,24XX HARRISON AV,39.1406394911223,-84.5804110040565,WESTWOOD,3722,169029121,1,,WHITE,MALE,24,NONFATAL,11/06/2016 12:00:00 AM,NOV,203900,20,SUN,169029121,11/06/2016 08:39:00 PM,DISTRICT 3,
3,23XX NOTTINGHAM RD,39.1563849075242,-84.5598737321482,FAYE APARTMENTS,1138,31009640,1,"CINC, OH 45237",BLACK,MALE,41,NONFATAL,09/22/2010 12:00:00 AM,SEP,,N/A,WED,31009640,09/22/2010 12:00:00 AM,DISTRICT 3,45225
4,13XX JOSEPH ST,39.173517646378,-84.4751489430254,BOND HILL,1298,41100847,1,"CINC, OH 45219",BLACK,FEMALE,29,FATAL,02/11/2011 12:00:00 AM,FEB,192500,19,FRI,41100847,02/11/2011 07:25:00 PM,DISTRICT 4,45237
1,1XX W LIBERTY ST,39.1132218879571,-84.5179046518893,OVER-THE-RHINE,2212,139012753,3,"CINC, OH",BLACK,FEMALE,27,NONFATAL,05/23/2013 12:00:00 AM,MAY,123700,12,THU,139012753,05/23/2013 12:37:00 PM,DISTRICT 1,45202
1,19XX RACE ST,39.1156148909357,-84.5187454250639,OVER-THE-RHINE,583,10902364,1,,BLACK,MALE,51,NONFATAL,06/01/2009 12:00:00 AM,JUN,,N/A,MON,10902364,06/01/2009 12:00:00 AM,DISTRICT 1,45202
4,29XX BURNET AV,39.1335115778977,-84.5005912069909,AVONDALE,1922,129022634,1,"CINC, OH 45202",BLACK,MALE,48,NONFATAL,08/09/2012 12:00:00 AM,AUG,234200,23,THU,129022634,08/09/2012 11:42:00 PM,DISTRICT 4,45219
4,6XX JUNE ST,39.128381281176,-84.4959750708401,WALNUT HILLS,926,41001662,1,,BLACK,MALE,18,NONFATAL,03/30/2010 12:00:00 AM,MAR,,N/A,TUE,41001662,03/30/2010 12:00:00 AM,DISTRICT 4,45206
5,XX KINGS RUN CT,39.1776558680202,-84.5088228117271,WINTON HILLS,291,50805718,1,,BLACK,MALE,15,NONFATAL,09/19/2008 12:00:00 AM,SEP,,N/A,FRI,50805718,09/19/2008 12:00:00 AM,DISTRICT 5,45232
5,14XX CEDAR AV,39.1992942843486,-84.5435686964749,COLLEGE HILL,3372,169003369,1,"CINCINNATI, OH 45224",BLACK,MALE,53,NONFATAL,02/10/2016 12:00:00 AM,FEB,184500,18,WED,169003369,02/10/2016 06:45:00 PM,DISTRICT 5,
5,11XX ATWOOD AV,39.1985320617679,-84.5383351626648,COLLEGE HILL,3599,169019735,1,"CINCINNATI, OH 45231",WHITE,MALE,35,NONFATAL,08/04/2016 12:00:00 AM,AUG,184200,18,THU,169019735,08/04/2016 06:42:00 PM,DISTRICT 5,
5,11XX W GALBRAITH RD,39.2151481198115,-84.5303482507118,COLLEGE HILL,2078,139000850,2,"CINC, OH 45239",BLACK,MALE,27,NONFATAL,01/11/2013 12:00:00 AM,JAN,133000,13,FRI,139000850,01/11/2013 01:30:00 PM,DISTRICT 5,45231
4,71XX READING RD,39.1899540332249,-84.4623875012339,ROSELAWN,2044,129036041,1,"CINC, OH 45215",BLACK,MALE,16,NONFATAL,12/09/2012 12:00:00 AM,DEC,044100,4,SUN,129036041,12/09/2012 04:41:00 AM,DISTRICT 4,45237
3,23XX NOTTINGHAM RD,39.1565024962916,-84.5591347044751,FAYE APARTMENTS,182,30806132,1,,BLACK,MALE,19,NONFATAL,06/30/2008 12:00:00 AM,JUN,,N/A,MON,30806132,06/30/2008 12:00:00 AM,DISTRICT 3,45225
4,7XX CHALFONTE PL,39.1509462790285,-84.488200324909,NORTH AVONDALE,362,40808286,2,,BLACK,FEMALE,19,NONFATAL,11/01/2008 12:00:00 AM,NOV,,N/A,SAT,40808286,11/01/2008 12:00:00 AM,DISTRICT 4,45229
4,76XX READING RD,39.1988596563863,-84.4572282006327,ROSELAWN,3252,159028528,1,"CINCINNATI, OH",BLACK,MALE,37,FATAL,10/16/2015 12:00:00 AM,OCT,213400,21,FRI,159028528,10/16/2015 09:34:00 PM,DISTRICT 4,
1,16XX RACE ST,39.1121489858256,-84.5184887005751,OVER-THE-RHINE,1217,11005237,1,"CINC., OH 45238",BLACK,MALE,17,NONFATAL,11/17/2010 12:00:00 AM,NOV,,N/A,WED,11005237,11/17/2010 12:00:00 AM,DISTRICT 1,45202
4,16XX SPARKLE DR,39.206694130206,-84.4588473989774,ROSELAWN,15,40800361,1,,BLACK,MALE,29,FATAL,01/14/2008 12:00:00 AM,JAN,,N/A,MON,40800361,01/14/2008 12:00:00 AM,DISTRICT 4,45237
4,35XX READING RD,39.1445448727991,-84.4910167872169,AVONDALE,1923,129022694,1,"CINC, OH 45229",BLACK,MALE,17,NONFATAL,08/11/2012 12:00:00 AM,AUG,163500,16,SAT,129022694,08/11/2012 04:35:00 PM,DISTRICT 4,45229
1,7XX BETTON ST,39.1107747864177,-84.5283265544971,WEST END,260,10804070,1,,BLACK,MALE,17,NONFATAL,08/17/2008 12:00:00 AM,AUG,,N/A,SUN,10804070,08/17/2008 12:00:00 AM,DISTRICT 1,45214
4,29XX GILBERT AV,39.1323159248803,-84.4886423572407,WALNUT HILLS,2668,149015712,1,"CINC, OH 45219",BLACK,MALE,25,NONFATAL,06/30/2014 12:00:00 AM,JUN,231700,23,MON,149015712,06/30/2014 11:17:00 PM,DISTRICT 4,45206
2,26XX VICTORY PY,39.1281653604847,-84.4849079787805,EAST WALNUT HILLS,3001,159011503,2,"CINCINNATI, OH 45206",BLACK,MALE,40,NONFATAL,05/08/2015 12:00:00 AM,MAY,214000,21,FRI,159011503,05/08/2015 09:40:00 PM,DISTRICT 2,45206
3,37XX WARSAW AV,39.1118678848903,-84.5737159747051,EAST PRICE HILL,930,31002708,1,,BLACK,MALE,21,NONFATAL,04/04/2010 12:00:00 AM,APR,,N/A,SUN,31002708,04/04/2010 12:00:00 AM,DISTRICT 3,45205
5,4XX KINGS RUN DR,39.1757419055958,-84.5101125541213,WINTON HILLS,2631,149012454,1,"CINTI, OH 45229",BLACK,MALE,21,NONFATAL,05/28/2014 12:00:00 AM,MAY,193500,19,WED,149012454,05/28/2014 07:35:00 PM,DISTRICT 5,45232
1,16XX RACE ST,39.1133557263552,-84.516788879053,OVER-THE-RHINE,635,10903184,1,,BLACK,MALE,43,NONFATAL,07/16/2009 12:00:00 AM,JUL,,N/A,THU,10903184,07/16/2009 12:00:00 AM,DISTRICT 1,45202
3,10XX ROSS AV,39.1138713551545,-84.5751969054992,EAST PRICE HILL,1166,31010101,1,"CINC, OH 45238",BLACK,MALE,26,NONFATAL,10/08/2010 12:00:00 AM,OCT,,N/A,FRI,31010101,10/08/2010 12:00:00 AM,DISTRICT 3,45205
1,2XX W MCMICKEN AV,39.1182973430154,-84.5219565706359,OVER-THE-RHINE,1819,129012715,1,"BATESVILLE, IN 47006",WHITE,MALE,22,NONFATAL,05/11/2012 12:00:00 AM,MAY,211000,21,FRI,129012715,05/11/2012 09:10:00 PM,DISTRICT 1,45202
3,9XX MCPHERSON AV,39.1092954933676,-84.5708382362423,EAST PRICE HILL,45,30801919,1,,BLACK,MALE,16,NONFATAL,03/09/2008 12:00:00 AM,MAR,,N/A,SUN,30801919,03/09/2008 12:00:00 AM,DISTRICT 3,45205
5,53XX BAHAMA TER,39.1875538103454,-84.5661946725231,MOUNT AIRY,2779,149024909,1,"CINCINNATI, OH 45223",BLACK,MALE,14,NONFATAL,09/30/2014 12:00:00 AM,SEP,201200,20,TUE,149024909,09/30/2014 08:12:00 PM,DISTRICT 5,45223
1,8XX CLARK ST,39.1077678934478,-84.5275267893331,WEST END,1273,11100047,1,"CINC., OH 45214",BLACK,MALE,20,NONFATAL,01/04/2011 12:00:00 AM,JAN,185500,18,TUE,11100047,01/04/2011 06:55:00 PM,DISTRICT 1,45203
1,5XX YORK ST,39.1178412922088,-84.5256462300418,WEST END,2169,139009003,1,"CINTI., OH 45202",BLACK,MALE,24,NONFATAL,04/17/2013 12:00:00 AM,APR,115100,11,WED,139009003,04/17/2013 11:51:00 AM,DISTRICT 1,45214
4,48XX READING RD,39.1746094532399,-84.4666026532195,BOND HILL,491,40901654,2,,BLACK,MALE,19,NONFATAL,03/13/2009 12:00:00 AM,MAR,,N/A,FRI,40901654,03/13/2009 12:00:00 AM,DISTRICT 4,45237
5,47XX HAMILTON AV,39.1771976082057,-84.5450764080097,NORTHSIDE,3427,169007433,1,"CINCINNATI, OH 45223",BLACK,FEMALE,16,NONFATAL,03/31/2016 12:00:00 AM,MAR,005700,0,THU,169007433,03/31/2016 12:57:00 AM,DISTRICT 5,
3,29XX WOODROW AV,39.1412966820066,-84.5862734306839,WESTWOOD,3283,159029855,1,"CINCINNATI, OH 45229",BLACK,MALE,29,NONFATAL,11/01/2015 12:00:00 AM,NOV,185500,18,SUN,159029855,11/01/2015 06:55:00 PM,DISTRICT 3,
4,36XX READING RD,39.1503538552849,-84.4879493450355,NORTH AVONDALE,2626,149012066,1,"CINCINNATI, OH 45229",BLACK,MALE,25,NONFATAL,05/25/2014 12:00:00 AM,MAY,013000,1,SUN,149012066,05/25/2014 01:30:00 AM,DISTRICT 4,45229
1,13XX WALNUT ST,39.1100880466483,-84.5124757933727,OVER-THE-RHINE,509,10901330,1,,BLACK,MALE,34,NONFATAL,04/01/2009 12:00:00 AM,APR,,N/A,WED,10901330,04/01/2009 12:00:00 AM,DISTRICT 1,45202
4,23XX READING RD,39.1229455034432,-84.5010603397665,WALNUT HILLS,1786,129009122,1,"CINC, OH 45240",BLACK,FEMALE,21,NONFATAL,04/08/2012 12:00:00 AM,APR,210200,21,SUN,129009122,04/08/2012 09:02:00 PM,DISTRICT 4,45206
3,24XX HARRISON AV,39.1409004682241,-84.5809352385355,WESTWOOD,3233,159027351,1,"CINCINNATI, OH 45211",BLACK,MALE,15,NONFATAL,10/04/2015 12:00:00 AM,OCT,193000,19,SUN,159027351,10/04/2015 07:30:00 PM,DISTRICT 3,
5,53XX HOLLAND DR,39.1879225608319,-84.512877653737,WINTON HILLS,457,50900668,2,,BLACK,MALE,22,NONFATAL,02/07/2009 12:00:00 AM,FEB,,N/A,SAT,50900668,02/07/2009 12:00:00 AM,DISTRICT 5,45232
5,51XX HAWAIIAN TE,39.1824467443989,-84.5663786093176,MOUNT AIRY,661,50904561,1,,BLACK,MALE,15,NONFATAL,08/01/2009 12:00:00 AM,AUG,,N/A,SAT,50904561,08/01/2009 12:00:00 AM,DISTRICT 5,45223
4,6XX ROCKDALE AV,39.1440312815041,-84.4936449343828,AVONDALE,3483,169012685,1,"CINCINNATI, OH 45206",BLACK,MALE,19,NONFATAL,05/27/2016 12:00:00 AM,MAY,233000,23,FRI,169012685,05/27/2016 11:30:00 PM,DISTRICT 4,
5,8XX DUTCH COLONY DR,39.1913985494877,-84.5192659933151,WINTON HILLS,1293,51100596,1,"CINC, OH 45240",BLACK,MALE,20,NONFATAL,02/01/2011 12:00:00 AM,FEB,140400,14,TUE,51100596,02/01/2011 02:04:00 PM,DISTRICT 5,45232
4,22XX RICE ST,39.1216223053629,-84.5132882081467,MOUNT AUBURN,778,40908035,1,,BLACK,MALE,24,NONFATAL,11/19/2009 12:00:00 AM,NOV,,N/A,THU,40908035,11/19/2009 12:00:00 AM,DISTRICT 4,45219
3,12XX MANSS AV,39.1151110508507,-84.5778975420124,WEST PRICE HILL,1882,129018748,1,"CINC, OH 45225",BLACK,MALE,24,NONFATAL,07/09/2012 12:00:00 AM,JUL,205000,20,MON,129018748,07/09/2012 08:50:00 PM,DISTRICT 3,45205
3,24XX HARRISON AV,39.1399883884037,-84.5795263281343,WESTWOOD,1186,31010773,1,"CINC, OH 45211",BLACK,MALE,15,NONFATAL,10/25/2010 12:00:00 AM,OCT,,N/A,MON,31010773,10/25/2010 12:00:00 AM,DISTRICT 3,45211
4,5XX HALE AV #11,39.1406299501963,-84.4972800413246,AVONDALE,1444,41103757,1,"CINC, OH 45229",BLACK,MALE,40,NONFATAL,06/17/2011 12:00:00 AM,JUN,233000,23,FRI,41103757,06/17/2011 11:30:00 PM,DISTRICT 4,45229
3,10XX WINFIELD AV,39.1104270817685,-84.5851708546176,WEST PRICE HILL,1101,31008620,1,"CINC, OH 45220",BLACK,MALE,18,NONFATAL,08/30/2010 12:00:00 AM,AUG,,N/A,MON,31008620,08/30/2010 12:00:00 AM,DISTRICT 3,45205
5,53XX BAHAMA TER,39.1878675286356,-84.5653654616149,MOUNT AIRY,1520,51104243,1,"CIN, OH 45202",BLACK,MALE,18,NONFATAL,07/31/2011 12:00:00 AM,JUL,214500,21,SUN,51104243,07/31/2011 09:45:00 PM,DISTRICT 5,45223
4,23XX VINE ST,39.1247049309904,-84.5140527656235,MOUNT AUBURN,731,40906697,1,,BLACK,MALE,27,NONFATAL,09/25/2009 12:00:00 AM,SEP,,N/A,FRI,40906697,09/25/2009 12:00:00 AM,DISTRICT 4,45219
1,7XX BETTON ST,39.1103110271952,-84.5262973825883,WEST END,1140,11004321,1,"CINC, OH 45202",BLACK,MALE,42,NONFATAL,09/23/2010 12:00:00 AM,SEP,,N/A,THU,11004321,09/23/2010 12:00:00 AM,DISTRICT 1,45214
3,41XX PRESIDENT DR,39.1571286549117,-84.5579116136803,FAYE APARTMENTS,611,30905846,1,,BLACK,MALE,34,NONFATAL,06/29/2009 12:00:00 AM,JUN,,N/A,MON,30905846,06/29/2009 12:00:00 AM,DISTRICT 3,45225
1,17XX BAYMILLER AV,39.1167990944302,-84.5294490725027,WEST END,2439,139029449,1,"CINC, OH 45229",BLACK,MALE,19,NONFATAL,10/26/2013 12:00:00 AM,OCT,122000,12,SAT,139029449,10/26/2013 12:20:00 PM,DISTRICT 1,45214
5,58XX RENEE CT,39.204316326681,-84.5643772754637,MOUNT AIRY,2155,139008090,1,"CINCI, OH 45207",BLACK,MALE,42,FATAL,04/08/2013 12:00:00 AM,APR,180200,18,MON,139008090,04/08/2013 06:02:00 PM,DISTRICT 5,45239
3,41XX GLENWAY AV,39.1133740728919,-84.5811919943907,WEST PRICE HILL,1129,31009255,1,"CINC, OH 45223",BLACK,MALE,20,NONFATAL,09/15/2010 12:00:00 AM,SEP,,N/A,WED,31009255,09/15/2010 12:00:00 AM,DISTRICT 3,45205
1,17XX CENTRAL AV,39.1161347335453,-84.5232356179609,WEST END,1042,11002940,1,"CINC, OH 45227",BLACK,MALE,28,NONFATAL,07/10/2010 12:00:00 AM,JUL,,N/A,SAT,11002940,07/10/2010 12:00:00 AM,DISTRICT 1,45214
1,10XX BANK ST,39.120398765185,-84.5329162009539,WEST END,3751,169032597,1,,BLACK,MALE,48,NONFATAL,12/13/2016 12:00:00 AM,DEC,062500,6,TUE,169032597,12/13/2016 06:25:00 AM,DISTRICT 1,
5,55XX COLERAIN AV,39.1927621333593,-84.5715787644286,MOUNT AIRY,2316,139018905,3,"CINC, OH 45205",BLACK,MALE,18,NONFATAL,07/20/2013 12:00:00 AM,JUL,093000,9,SAT,139018905,07/20/2013 09:30:00 AM,DISTRICT 5,45239
3,8XX ENRIGHT AV,39.1068284565859,-84.5726270261642,EAST PRICE HILL,2452,139030954,1,"CINCINNATI, OH 45205",WHITE,MALE,46,NONFATAL,11/12/2013 12:00:00 AM,NOV,183000,18,TUE,139030954,11/12/2013 06:30:00 PM,DISTRICT 3,45205
3,31XX SAFFER ST,39.1436042722951,-84.5692981131433,EAST WESTWOOD,2111,139003943,1,"CINCINNATI, OH 45204",BLACK,FEMALE,21,NONFATAL,02/15/2013 12:00:00 AM,FEB,185200,18,FRI,139003943,02/15/2013 06:52:00 PM,DISTRICT 3,45211
4,12XX LINCOLN AV,39.1316962937725,-84.4821963185345,WALNUT HILLS,462,40900955,1,,BLACK,MALE,29,FATAL,02/10/2009 12:00:00 AM,FEB,,N/A,TUE,40900955,02/10/2009 12:00:00 AM,DISTRICT 4,45206
2,49XX MATHIS ST,39.1591145055458,-84.3908640412608,MADISONVILLE,1401,21102089,1,"CINC, OH 45227",BLACK,MALE,25,NONFATAL,05/20/2011 12:00:00 AM,MAY,214000,21,FRI,21102089,05/20/2011 09:40:00 PM,DISTRICT 2,45227
3,32XX BOWLING GREEN CT,39.1425132063281,-84.5535549203639,MILLVALE,2189,139010894,1,"CINC, OH 45225",BLACK,MALE,24,FATAL,05/01/2013 12:00:00 AM,MAY,214000,21,WED,139010894,05/01/2013 09:40:00 PM,DISTRICT 3,45225
5,53XX BAHAMA TE,39.1890954649385,-84.5646099930805,MOUNT AIRY,2649,149014078,1,"CINCINNATI, OH 45239",BLACK,MALE,29,NONFATAL,06/14/2014 12:00:00 AM,JUN,230000,23,SAT,149014078,06/14/2014 11:00:00 PM,DISTRICT 5,45223
3,28XX QUEEN CITY AV,39.1338124163628,-84.5949234203337,WESTWOOD,2379,139024989,1,0,BLACK,MALE,22,NONFATAL,09/15/2013 12:00:00 AM,SEP,190000,19,SUN,139024989,09/15/2013 07:00:00 PM,DISTRICT 3,45238
4,6XX GHOLSON AV,39.1490229295863,-84.493175278792,NORTH AVONDALE,2432,139028726,2,"SARDINIA, OH 45171",WHITE,MALE,42,NONFATAL,10/19/2013 12:00:00 AM,OCT,171500,17,SAT,139028726,10/19/2013 05:15:00 PM,DISTRICT 4,45229
4,35XX ALASKA AV,39.1488438301108,-84.4992981620391,AVONDALE,2920,159006410,1,"CINC, OH 45224",BLACK,MALE,21,NONFATAL,03/18/2015 12:00:00 AM,MAR,205000,20,WED,159006410,03/18/2015 08:50:00 PM,DISTRICT 4,45229
4,39XX READING RD,39.1557066106209,-84.4813613550264,NORTH AVONDALE,2866,149033164,1,,BLACK,MALE,24,NONFATAL,12/30/2014 12:00:00 AM,DEC,200300,20,TUE,149033164,12/30/2014 08:03:00 PM,DISTRICT 4,45229
4,36XX READING RD,39.150668108964,-84.48785446678,NORTH AVONDALE,3247,159028234,1,"CINCINNATI, OH 45229",BLACK,MALE,34,NONFATAL,10/13/2015 12:00:00 AM,OCT,190000,19,TUE,159028234,10/13/2015 07:00:00 PM,DISTRICT 4,
5,54XX HOLLAND DR,39.189310340541,-84.5131297079403,WINTON HILLS,654,50904429,1,,BLACK,MALE,17,NONFATAL,07/27/2009 12:00:00 AM,JUL,,N/A,MON,50904429,07/27/2009 12:00:00 AM,DISTRICT 5,45232
3,9XX ELBERON AV,39.1095904028232,-84.5651938659268,EAST PRICE HILL,3532,169015798,1,"CINCINNATI, OH 45205",BLACK,MALE,20,NONFATAL,06/28/2016 12:00:00 AM,JUN,152400,15,TUE,169015798,06/28/2016 03:24:00 PM,DISTRICT 3,
3,21XX STORRS ST,39.1031655673562,-84.5534476608355,LOWER PRICE HILL,1662,31110605,1,"CINC, OH 45219",BLACK,MALE,36,FATAL,12/03/2011 12:00:00 AM,DEC,201100,20,SAT,31110605,12/03/2011 08:11:00 PM,DISTRICT 3,45204
4,5XX CARPLIN,39.1395623149542,-84.4962326312731,AVONDALE,2719,149020308,2,"CINC, OH 45207",BLACK,MALE,31,NONFATAL,08/17/2014 12:00:00 AM,AUG,030000,3,SUN,149020308,08/17/2014 03:00:00 AM,DISTRICT 4,45229
4,23XX CONCORD ST,39.123053424581,-84.4937393313813,WALNUT HILLS,1176,41006536,1,"CINC, OH 45206",BLACK,MALE,21,NONFATAL,10/14/2010 12:00:00 AM,OCT,,N/A,THU,41006536,10/14/2010 12:00:00 AM,DISTRICT 4,45206
1,7XX CHESTNUT ST,39.1078510325839,-84.527950967943,WEST END,535,10901627,1,,BLACK,FEMALE,32,FATAL,04/22/2009 12:00:00 AM,APR,,N/A,WED,10901627,04/22/2009 12:00:00 AM,DISTRICT 1,45203
3,23XX BALTIMORE AV,39.149640285047,-84.5615248929399,EAST WESTWOOD,3213,159026545,1,"CINCINNATI, OH 45240",BLACK,MALE,23,NONFATAL,09/26/2015 12:00:00 AM,SEP,174500,17,SAT,159026545,09/26/2015 05:45:00 PM,DISTRICT 3,
5,27XX HILLVISTA LN,39.1917461922418,-84.5741886517311,MOUNT AIRY,943,51001877,1,,BLACK,MALE,29,NONFATAL,04/13/2010 12:00:00 AM,APR,,N/A,TUE,51001877,04/13/2010 12:00:00 AM,DISTRICT 5,45239
4,7XX RIDGEWAY AV,39.1382656592205,-84.4929169651925,AVONDALE,3280,159029892,1,"CINC, OH 45229",BLACK,MALE,30,NONFATAL,10/31/2015 12:00:00 AM,OCT,010000,1,SAT,159029892,10/31/2015 01:00:00 AM,DISTRICT 4,
1,8XX CLARK ST,39.1069335926434,-84.5280778130584,WEST END,1637,11104533,1,"CINC, OH 45227",BLACK,MALE,19,NONFATAL,11/07/2011 12:00:00 AM,NOV,203000,20,MON,11104533,11/07/2011 08:30:00 PM,DISTRICT 1,45203
4,11XX E MCMILLAN ST,39.1250668066242,-84.486581030285,WALNUT HILLS,1932,129024111,1,"CINC, OH 45206",BLACK,MALE,26,FATAL,08/18/2012 12:00:00 AM,AUG,223700,22,SAT,129024111,08/18/2012 10:37:00 PM,DISTRICT 4,45206
3,27XX MONTANA AV,39.1503479372557,-84.5879966280259,WESTWOOD,3812,179003467,1,,BLACK,MALE,52,NONFATAL,02/06/2017 12:00:00 AM,FEB,115500,11,MON,179003467,02/06/2017 11:55:00 AM,DISTRICT 3,
4,7XX READING RD,39.1108215778292,-84.5043802687007,MOUNT AUBURN,2699,149018427,1,,BLACK,MALE,24,NONFATAL,07/29/2014 12:00:00 AM,JUL,233500,23,TUE,149018427,07/29/2014 11:35:00 PM,DISTRICT 4,45202
4,31XX READING RD,39.1354422330628,-84.4968983283057,AVONDALE,2148,139007437,2,"CINC, OH 45212",BLACK,MALE,20,NONFATAL,03/31/2013 12:00:00 AM,MAR,013500,1,SUN,139007437,03/31/2013 01:35:00 AM,DISTRICT 4,45229
3,36XX MCHENRY AV,39.1491058841041,-84.5624262573619,EAST WESTWOOD,3037,159013497,1,"CINCINNATI, OH 45211",BLACK,MALE,23,FATAL,05/27/2015 12:00:00 AM,MAY,230000,23,WED,159013497,05/27/2015 11:00:00 PM,DISTRICT 3,45225
5,54XX WINNESTE AV,39.1888577220177,-84.5144627050272,WINTON HILLS,2485,139034155,3,"CIN, OH 45211",BLACK,MALE,25,NONFATAL,12/21/2013 12:00:00 AM,DEC,044000,4,SAT,139034155,12/21/2013 04:40:00 AM,DISTRICT 5,45232
5,52XX HOLLAND DR,39.1854364015977,-84.5112884944489,WINTON HILLS,3447,169009681,1,"CINCINNATI, OH 45232",BLACK,MALE,23,NONFATAL,04/25/2016 12:00:00 AM,APR,010500,1,MON,169009681,04/25/2016 01:05:00 AM,DISTRICT 5,
5,47XX ESTE AV,39.1761509553885,-84.5078796711584,WINTON HILLS,3444,169009502,1,"CINCINNATI, OH 45232",BLACK,MALE,14,NONFATAL,04/22/2016 12:00:00 AM,APR,195100,19,FRI,169009502,04/22/2016 07:51:00 PM,DISTRICT 5,
3,32XX BROADWELL AV,39.1488209106443,-84.610055864976,WESTWOOD,2580,149008570,2,"CINCINNATI, OH 45211",BLACK,MALE,28,NONFATAL,04/18/2014 12:00:00 AM,APR,214000,21,FRI,149008570,04/18/2014 09:40:00 PM,DISTRICT 3,45211
3,16XX GILSEY AV,39.11873156442,-84.5805046704579,WEST PRICE HILL,181,30806187,2,,WHITE,MALE,33,NONFATAL,06/30/2008 12:00:00 AM,JUN,,N/A,MON,30806187,06/30/2008 12:00:00 AM,DISTRICT 3,45205
1,17XX JOHN ST,39.1146389733563,-84.5242131396043,WEST END,1978,129028293,1,"CINC, OH 45223",BLACK,FEMALE,13,NONFATAL,09/30/2012 12:00:00 AM,SEP,00000000000000.000,0,SUN,129028293,09/30/2012 12:00:00 AM,DISTRICT 1,45214
4,49XX READING RD,39.1759105538808,-84.4669013111245,BOND HILL,1191,41006888,1,"CINC, OH 45229",BLACK,MALE,26,NONFATAL,10/28/2010 12:00:00 AM,OCT,,N/A,THU,41006888,10/28/2010 12:00:00 AM,DISTRICT 4,45237
5,58XX PAMELEEN CT,39.2033318842275,-84.5774371235542,MOUNT AIRY,2088,139002197,1,"CINC, OH 45231",BLACK,FEMALE,22,NONFATAL,01/26/2013 12:00:00 AM,JAN,040000,4,SAT,139002197,01/26/2013 04:00:00 AM,DISTRICT 5,45239
5,54XX WINNESTE AV,39.1883277220177,-84.5149827050273,WINTON HILLS,2484,139034155,3,"CIN, OH 45223",BLACK,MALE,22,NONFATAL,12/21/2013 12:00:00 AM,DEC,044000,4,SAT,139034155,12/21/2013 04:40:00 AM,DISTRICT 5,45232
1,16XX LOCKHURST LN,39.114387083302,-84.5308357549691,WEST END,392,10806001,1,,BLACK,MALE,45,NONFATAL,12/06/2008 12:00:00 AM,DEC,,N/A,SAT,10806001,12/06/2008 12:00:00 AM,DISTRICT 1,45214
1,1XX GREEN ST,39.1148174651259,-84.5193003897723,OVER-THE-RHINE,3251,159028522,1,"CINCINNATI,OH 45202",BLACK,MALE,32,NONFATAL,10/16/2015 12:00:00 AM,OCT,202000,20,FRI,159028522,10/16/2015 08:20:00 PM,DISTRICT 1,
4,17XX SEYMOUR AV,39.1897495579532,-84.4647954223964,ROSELAWN,967,41002819,1,,BLACK,MALE,21,FATAL,05/16/2010 12:00:00 AM,MAY,,N/A,SUN,41002819,05/16/2010 12:00:00 AM,DISTRICT 4,45237
1,17XX VINE ST,39.1144901790558,-84.5164436877751,OVER-THE-RHINE,1424,11102155,1,"CINC, OH 45220",BLACK,MALE,33,NONFATAL,05/29/2011 12:00:00 AM,MAY,121500,12,SUN,11102155,05/29/2011 12:15:00 PM,DISTRICT 1,45202
5,27XX W NORTH BEND RD,39.1886035043214,-84.5761853207125,MOUNT AIRY,2048,129036517,1,"CINC, OH 45239",BLACK,MALE,38,NONFATAL,12/17/2012 12:00:00 AM,DEC,230000,23,MON,129036517,12/17/2012 11:00:00 PM,DISTRICT 5,45239
4,10XX CHAPEL ST,39.1313626114821,-84.4866371926822,WALNUT HILLS,1190,41006891,1,"CINC, OH 45206",BLACK,MALE,30,NONFATAL,10/28/2010 12:00:00 AM,OCT,,N/A,THU,41006891,10/28/2010 12:00:00 AM,DISTRICT 4,45206
5,54XX COLERAIN AV,39.1909276764849,-84.5704202960531,MOUNT AIRY,3389,169004564,1,"CINCINNATI, OH 45238",WHITE,MALE,24,NONFATAL,02/27/2016 12:00:00 AM,FEB,152400,15,SAT,169004564,02/27/2016 03:24:00 PM,DISTRICT 5,
3,36XX GLENWAY AV,39.1134682965351,-84.5705692855063,EAST PRICE HILL,2505,149000967,2,"CINCINNATI, OH 45224",BLACK,MALE,22,NONFATAL,01/14/2014 12:00:00 AM,JAN,190600,19,TUE,149000967,01/14/2014 07:06:00 PM,DISTRICT 3,45205
1,11XX LINN ST,39.1083759798161,-84.5275426024427,WEST END,3795,179001832,1,,BLACK,MALE,19,NONFATAL,01/19/2017 12:00:00 AM,JAN,180500,18,THU,179001832,01/19/2017 06:05:00 PM,DISTRICT 1,
4,11XX E MCMILLAN ST,39.1253727356762,-84.4850905773636,WALNUT HILLS,3196,159024772,1,"CINCINNATI, OH",BLACK,MALE,27,NONFATAL,09/11/2015 12:00:00 AM,SEP,043000,4,FRI,159024772,09/11/2015 04:30:00 AM,DISTRICT 4,
2,48XX EBERSOLE AV,39.1588077876295,-84.3967646633283,MADISONVILLE,2087,139002250,1,"CINC, OH 45227",BLACK,MALE,18,NONFATAL,01/25/2013 12:00:00 AM,JAN,200000,20,FRI,139002250,01/25/2013 08:00:00 PM,DISTRICT 2,45227
4,16XX SUMMIT RD,39.2026207956235,-84.4590534674392,ROSELAWN,2980,159010459,1,"CINTI, OH 45237",BLACK,MALE,21,NONFATAL,04/28/2015 12:00:00 AM,APR,224500,22,TUE,159010459,04/28/2015 10:45:00 PM,DISTRICT 4,45237
5,42XX CARLIN ST,39.1689299804283,-84.5511042707929,NORTHSIDE,2037,129034537,1,"HAMILTON, OH 45011",BLACK,MALE,20,NONFATAL,11/27/2012 12:00:00 AM,NOV,125400,12,TUE,129034537,11/27/2012 12:54:00 PM,DISTRICT 5,45223
3,30XX WORTHINGTON AV,39.1427203925204,-84.5803829227302,WESTWOOD,2572,149007822,1,"CINC, OH 45213",BLACK,MALE,25,FATAL,04/10/2014 12:00:00 AM,APR,230000,23,THU,149007822,04/10/2014 11:00:00 PM,DISTRICT 3,45211
3,9XX MANSION AV,39.1099100558516,-84.566723969893,EAST PRICE HILL,159,30805516,1,,WHITE,MALE,50,NONFATAL,06/13/2008 12:00:00 AM,JUN,,N/A,FRI,30805516,06/13/2008 12:00:00 AM,DISTRICT 3,45205
3,21XX QUEEN CITY AV,39.1271069676487,-84.574521560483,SOUTH FAIRMOUNT,2694,149018102,1,"CINCINNATI, OH 45211",BLACK,MALE,36,FATAL,07/25/2014 12:00:00 AM,JUL,212500,21,FRI,149018102,07/25/2014 09:25:00 PM,DISTRICT 3,45214
1,XX BARDES AL,39.1158528559772,-84.5172898365314,OVER-THE-RHINE,900,11000959,1,,BLACK,MALE,34,FATAL,03/20/2010 12:00:00 AM,MAR,,N/A,SAT,11000959,03/20/2010 12:00:00 AM,DISTRICT 1,45202
3,36XX MCHENRY AV,39.1502465214401,-84.5633059872842,EAST WESTWOOD,3282,159029758,1,"CINCINNATI, OH 45229",BLACK,MALE,32,NONFATAL,10/31/2015 12:00:00 AM,OCT,140000,14,SAT,159029758,10/31/2015 02:00:00 PM,DISTRICT 3,
5,XX TOPRIDGE PL,39.1831029727417,-84.5104875549027,WINTON HILLS,2163,139008548,2,"CINC, OH 45237",BLACK,MALE,38,FATAL,04/13/2013 12:00:00 AM,APR,010100,1,SAT,139008548,04/13/2013 01:01:00 AM,DISTRICT 5,45232
4,8XX HUTCHINS AV,39.1456392743905,-84.4893757108284,AVONDALE,1098,41005423,1,"CINC, OH 45207",BLACK,MALE,30,NONFATAL,08/29/2010 12:00:00 AM,AUG,,N/A,SUN,41005423,08/29/2010 12:00:00 AM,DISTRICT 4,45229
3,37XX CASS AV,39.1552010154324,-84.5538498114009,SOUTH CUMMINSVILLE,901,31002270,1,,BLACK,MALE,20,FATAL,03/21/2010 12:00:00 AM,MAR,,N/A,SUN,31002270,03/21/2010 12:00:00 AM,DISTRICT 3,45223
4,5XX GLENWOOD AV,39.1496725921039,-84.4950086033408,AVONDALE,2342,139021478,1,"CINC, OH 45214",BLACK,MALE,24,NONFATAL,08/10/2013 12:00:00 AM,AUG,233000,23,SAT,139021478,08/10/2013 11:30:00 PM,DISTRICT 4,45229
2,16XX HEWITT AV,39.1373079403795,-84.4756194071783,EVANSTON,2190,139010441,1,"CINC, OH 45229",BLACK,MALE,17,FATAL,05/01/2013 12:00:00 AM,MAY,233000,23,WED,139010441,05/01/2013 11:30:00 PM,DISTRICT 2,45207
C,1XX W 5TH ST,39.1008437003357,-84.5162295449258,CBD/RIVERFRONT,3818,179003961,1,,WHITE,MALE,33,NONFATAL,02/11/2017 12:00:00 AM,FEB,234000,23,SAT,179003961,02/11/2017 11:40:00 PM,CENTRAL BUSINESS SECTION,
5,1XX CRAFT ST,39.1798018763662,-84.5114604018326,WINTON HILLS,1148,51005968,1,"GREENDALE, IN",WHITE,MALE,18,FATAL,09/26/2010 12:00:00 AM,SEP,,N/A,SUN,51005968,09/26/2010 12:00:00 AM,DISTRICT 5,45232
4,34XX KNOTT ST,39.1433981811912,-84.4945128384963,AVONDALE,2498,149000531,2,"CINC, OH 45229",BLACK,FEMALE,28,FATAL,01/09/2014 12:00:00 AM,JAN,013000,1,THU,149000531,01/09/2014 01:30:00 AM,DISTRICT 4,45229
5,51XX COLERAIN AV,39.1823746078125,-84.5680709954187,MOUNT AIRY,195,50804344,1,,BLACK,MALE,12,FATAL,07/09/2008 12:00:00 AM,JUL,,N/A,WED,50804344,07/09/2008 12:00:00 AM,DISTRICT 5,45223
4,5XX HICKORY ST,39.144903966077,-84.4965962293976,AVONDALE,1329,41101630,1,"CINC, OH 45229",BLACK,MALE,22,NONFATAL,03/21/2011 12:00:00 AM,MAR,170600,17,MON,41101630,03/21/2011 05:06:00 PM,DISTRICT 4,45229
4,36XX VINE ST,39.14933215501,-84.5101113529999,AVONDALE,430,40900152,1,,BLACK,MALE,23,NONFATAL,01/07/2009 12:00:00 AM,JAN,,N/A,WED,40900152,01/07/2009 12:00:00 AM,DISTRICT 4,45220
1,16XX LINN ST,39.1139312647129,-84.5271089206352,WEST END,1625,11104406,1,"CINC, OH 45238",BLACK,MALE,26,NONFATAL,10/29/2011 12:00:00 AM,OCT,030000,3,SAT,11104406,10/29/2011 03:00:00 AM,DISTRICT 1,45214
4,7XX E MCMILLAN ST,39.1271474553943,-84.4959247776327,WALNUT HILLS,2571,149007778,1,"CINC, OH 45213",BLACK,MALE,20,FATAL,04/09/2014 12:00:00 AM,APR,163400,16,WED,149007778,04/09/2014 04:34:00 PM,DISTRICT 4,45206
3,33XX BOWLING GREEN CT,39.1437968115462,-84.5540672224259,MILLVALE,3465,169011471,3,,BLACK,MALE,37,NONFATAL,05/15/2016 12:00:00 AM,MAY,004400,0,SUN,169011471,05/15/2016 12:44:00 AM,DISTRICT 3,
3,29XX FOUR TOWERS DR,39.132887504859,-84.5977158865691,WESTWOOD,1519,31106814,1,"YSPILANTI, MI 48158",BLACK,MALE,20,NONFATAL,07/31/2011 12:00:00 AM,JUL,173000,17,SUN,31106814,07/31/2011 05:30:00 PM,DISTRICT 3,45238
2,36XX CLARION AVE,39.1454572417857,-84.4712256694344,EVANSTON,1337,21101149,1,"CINC, OH 45207",BLACK,MALE,17,NONFATAL,03/29/2011 12:00:00 AM,MAR,020500,2,TUE,21101149,03/29/2011 02:05:00 AM,DISTRICT 2,45207
4,27XX VINE ST,39.1306025799743,-84.5096615391325,CORRYVILLE,899,41001513,1,,BLACK,MALE,23,NONFATAL,03/20/2010 12:00:00 AM,MAR,,N/A,SAT,41001513,03/20/2010 12:00:00 AM,DISTRICT 4,45219
5,23XX W NORTH BEND RD,39.1966845762639,-84.5664070475137,MOUNT AIRY,3557,169017536,2,"CINCINNATI, OH 45240",BLACK,MALE,27,FATAL,07/15/2016 12:00:00 AM,JUL,031000,3,FRI,169017536,07/15/2016 03:10:00 AM,DISTRICT 5,
4,35XX READING RD,39.1455634879837,-84.4895999758282,AVONDALE,994,41003244,2,,BLACK,MALE,22,NONFATAL,06/03/2010 12:00:00 AM,JUN,,N/A,THU,41003244,06/03/2010 12:00:00 AM,DISTRICT 4,45229
1,6XX CLARK ST,39.1073514345264,-84.5259641220397,WEST END,2531,149003630,1,"CINCINNATI, OH 45224",BLACK,MALE,20,NONFATAL,02/18/2014 12:00:00 AM,FEB,222500,22,TUE,149003630,02/18/2014 10:25:00 PM,DISTRICT 1,45203
4,33XX READING RD,39.1407073230314,-84.4931101475029,AVONDALE,1607,41106617,1,"CINC, OH 45213",BLACK,MALE,34,NONFATAL,10/12/2011 12:00:00 AM,OCT,175000,17,WED,41106617,10/12/2011 05:50:00 PM,DISTRICT 4,45229
3,29XX PRICE AV,39.1066311633439,-84.5605511084465,EAST PRICE HILL,1121,31009167,1,"CINC, OH 45205",WHITE,FEMALE,42,FATAL,09/10/2010 12:00:00 AM,SEP,,N/A,FRI,31009167,09/10/2010 12:00:00 AM,DISTRICT 3,45204
3,30XX GLENMORE AV,39.1413193131852,-84.6129415272716,WESTWOOD,2385,139025581,1,,BLACK,MALE,21,NONFATAL,09/19/2013 12:00:00 AM,SEP,212000,21,THU,139025581,09/19/2013 09:20:00 PM,DISTRICT 3,45211
4,48XX READING RD,39.174620835184,-84.4679816708762,BOND HILL,1364,41102296,1,"CINC, OH 45229",BLACK,MALE,25,NONFATAL,04/18/2011 12:00:00 AM,APR,135400,13,MON,41102296,04/18/2011 01:54:00 PM,DISTRICT 4,45237
4,16XX SPARKLE DR,39.2063693664274,-84.4580725931577,ROSELAWN,1792,129009680,1,"CINC, OH 45255",BLACK,MALE,27,NONFATAL,04/12/2012 12:00:00 AM,APR,231000,23,THU,129009680,04/12/2012 11:10:00 PM,DISTRICT 4,45237
3,32XX BOWLING GREEN CT,39.1430610312383,-84.5524744449534,MILLVALE,2673,149016038,1,"CINCINNATI, OH 45231",BLACK,MALE,20,NONFATAL,07/04/2014 12:00:00 AM,JUL,172600,17,FRI,149016038,07/04/2014 05:26:00 PM,DISTRICT 3,45225
4,78XX NEWBEDFORD AV,39.2053687438704,-84.457392284495,ROSELAWN,2969,159009941,1,"CINC, OH 45206",BLACK,MALE,19,FATAL,04/23/2015 12:00:00 AM,APR,191000,19,THU,159009941,04/23/2015 07:10:00 PM,DISTRICT 4,45237
4,7XX RIDGEWAY AV,39.1382525531466,-84.4944759049788,AVONDALE,3081,159016193,1,"CINC, OH 45229",BLACK,FEMALE,19,NONFATAL,06/23/2015 12:00:00 AM,JUN,230500,23,TUE,159016193,06/23/2015 11:05:00 PM,DISTRICT 4,45229
3,37XX WARSAW AV,39.1138940396227,-84.5758374601717,EAST PRICE HILL,2576,149008377,1,"CINC, OH 45225",BLACK,MALE,31,NONFATAL,04/14/2014 12:00:00 AM,APR,003000,0,MON,149008377,04/14/2014 12:30:00 AM,DISTRICT 3,45205
4,77XX STILLWELL ST,39.2041658182296,-84.4575871750118,ROSELAWN,1466,41104096,5,"CINC, OH 45229",BLACK,MALE,30,NONFATAL,07/01/2011 12:00:00 AM,JUL,001000,0,FRI,41104096,07/01/2011 12:10:00 AM,DISTRICT 4,45237
5,1XX CRAFT ST,39.1788526637496,-84.511476225714,WINTON HILLS,2577,149008212,1,"CINC, OH 45213",BLACK,MALE,31,NONFATAL,04/15/2014 12:00:00 AM,APR,101300,10,TUE,149008212,04/15/2014 10:13:00 AM,DISTRICT 5,45232
1,5XX FINDLAY ST,39.1160634580861,-84.5274710500491,WEST END,2662,149015323,1,"CINCINNATI, OH 45231",BLACK,MALE,54,NONFATAL,06/26/2014 12:00:00 AM,JUN,231500,23,THU,149015323,06/26/2014 11:15:00 PM,DISTRICT 1,45214
3,30XX QUEEN CITY AV,39.1352761133518,-84.6024791873094,WESTWOOD,2943,159007787,1,"CINCI, OH 45213",BLACK,MALE,27,NONFATAL,04/01/2015 12:00:00 AM,APR,221500,22,WED,159007787,04/01/2015 10:15:00 PM,DISTRICT 3,45238
5,13XX W NORTH BEND RD,39.2028593525202,-84.5400726919754,COLLEGE HILL,3204,159025311,1,"CINCINNATI, OH 45210",BLACK,MALE,30,NONFATAL,09/16/2015 12:00:00 AM,SEP,,N/A,WED,159025311,09/16/2015 12:00:00 AM,DISTRICT 5,
1,1XX GREEN ST,39.1133501333412,-84.5181922505843,OVER-THE-RHINE,1780,129008457,1,"CINC, OH 45211",WHITE,MALE,23,NONFATAL,04/03/2012 12:00:00 AM,APR,194500,19,TUE,129008457,04/03/2012 07:45:00 PM,DISTRICT 1,45202
2,15XX MERRIMAC,39.1342025119011,-84.4785479140006,EVANSTON,2528,149003332,1,"CINCINNATI, OH 45206",BLACK,MALE,33,NONFATAL,02/13/2014 12:00:00 AM,FEB,220700,22,THU,149003332,02/13/2014 10:07:00 PM,DISTRICT 2,45207
3,29XX AQUADALE LN,39.1402155661929,-84.5752308914713,WESTWOOD,842,31000560,1,,BLACK,MALE,40,NONFATAL,01/15/2010 12:00:00 AM,JAN,,N/A,FRI,31000560,01/15/2010 12:00:00 AM,DISTRICT 3,45211
1,19XX DUNLAP,39.1160749364693,-84.520200103799,OVER-THE-RHINE,2305,139018202,1,"CINC, OH 45202",BLACK,MALE,20,NONFATAL,07/13/2013 12:00:00 AM,JUL,001500,0,SAT,139018202,07/13/2013 12:15:00 AM,DISTRICT 1,45214
4,XX SHIRLEY DR,39.1546383760687,-84.5060537070639,AVONDALE,1927,129023227,2,"CINC, OH 45229",BLACK,MALE,19,NONFATAL,08/15/2012 12:00:00 AM,AUG,212700,21,WED,129023227,08/15/2012 09:27:00 PM,DISTRICT 4,45217
4,83XX ANTHONY WAYNE AV,39.2136158948135,-84.4636653980875,HARTWELL,1541,41105332,2,"CINC, OH 45216",WHITE,MALE,111,NONFATAL,08/20/2011 12:00:00 AM,AUG,024000,2,SAT,41105332,08/20/2011 02:40:00 AM,DISTRICT 4,45216
4,2XX FOSDICK ST,39.1314127429731,-84.5043225619088,CORRYVILLE,1170,41006438,2,"CINC, OH 45219",WHITE,MALE,21,NONFATAL,10/10/2010 12:00:00 AM,OCT,,N/A,SUN,41006438,10/10/2010 12:00:00 AM,DISTRICT 4,45219
1,16XX VINE ST,39.1144771757201,-84.5155511033332,OVER-THE-RHINE,751,10904984,1,,BLACK,MALE,17,NONFATAL,10/22/2009 12:00:00 AM,OCT,,N/A,THU,10904984,10/22/2009 12:00:00 AM,DISTRICT 1,45202
3,10XX GRAND AV,39.1104364132697,-84.5601712766155,EAST PRICE HILL,2363,139023429,1,"CINC, OH 45211",BLACK,MALE,28,NONFATAL,08/30/2013 12:00:00 AM,AUG,163000,16,FRI,139023429,08/30/2013 04:30:00 PM,DISTRICT 3,45205
3,30XX MICKEY AV,39.1175177974219,-84.5608724334548,EAST PRICE HILL,2517,149002070,1,"CINTI, OH 45205",BLACK,MALE,48,NONFATAL,01/28/2014 12:00:00 AM,JAN,182000,18,TUE,149002070,01/28/2014 06:20:00 PM,DISTRICT 3,45204
2,15XX CHAPEL ST,39.1301105930699,-84.4775361956391,EAST WALNUT HILLS,840,21000114S1,1,,BLACK,MALE,27,NONFATAL,01/11/2010 12:00:00 AM,JAN,,N/A,MON,21000114S1,01/11/2010 12:00:00 AM,DISTRICT 2,45206
4,8XX OAK ST,39.1308198519877,-84.4910478937764,WALNUT HILLS,1590,41106386,1,"CINC, OH 45206",BLACK,MALE,29,FATAL,09/30/2011 12:00:00 AM,SEP,102100,10,FRI,41106386,09/30/2011 10:21:00 AM,DISTRICT 4,45206
1,13XX WALNUT ST,39.1097312100378,-84.5131000724977,OVER-THE-RHINE,390,10805910,1,,BLACK,MALE,25,NONFATAL,12/01/2008 12:00:00 AM,DEC,,N/A,MON,10805910,12/01/2008 12:00:00 AM,DISTRICT 1,45202
2,44XX EASTERN AV,39.1128741656381,-84.4235254723085,COLUMBIA TUSCULUM,2181,139009730,1,"CINC, OH 45226",WHITE,MALE,33,NONFATAL,04/24/2013 12:00:00 AM,APR,210000,21,WED,139009730,04/24/2013 09:00:00 PM,DISTRICT 2,45226
3,18XX BALTIMORE AV,39.1354291997778,-84.5584192220694,NORTH FAIRMOUNT,2375,139024967,1,"CINC, OH 45223",BLACK,MALE,52,NONFATAL,09/13/2013 12:00:00 AM,SEP,130000,13,FRI,139024967,09/13/2013 01:00:00 PM,DISTRICT 3,45225
1,16XX LOCKHURST LN,39.114346754283,-84.5305007016133,WEST END,1419,11102107,1,"CINC., OH 45214",BLACK,MALE,29,NONFATAL,05/26/2011 12:00:00 AM,MAY,210000,21,THU,11102107,05/26/2011 09:00:00 PM,DISTRICT 1,45214
4,7XX RIDGEWAY AV,39.1388356592205,-84.4929069651925,AVONDALE,831,40908933,1,,BLACK,MALE,54,NONFATAL,12/29/2009 12:00:00 AM,DEC,,N/A,TUE,40908933,12/29/2009 12:00:00 AM,DISTRICT 4,45229
4,71XX PADDOCK RD,39.1928040158071,-84.4745895889128,ROSELAWN,620,40904599,4,,BLACK,MALE,22,NONFATAL,07/03/2009 12:00:00 AM,JUL,,N/A,FRI,40904599,07/03/2009 12:00:00 AM,DISTRICT 4,45237
1,XX E MCMICKEN AV,39.1151625433606,-84.5159583746649,OVER-THE-RHINE,822,10905996,1,,BLACK,MALE,33,NONFATAL,12/20/2009 12:00:00 AM,DEC,,N/A,SUN,10905996,12/20/2009 12:00:00 AM,DISTRICT 1,45202
5,1XX CALHOUN ST,39.127205495257,-84.5138006925749,CUF,2883,159002151,2,"CINC, OH 45237",BLACK,MALE,23,NONFATAL,01/23/2015 12:00:00 AM,JAN,233500,23,FRI,159002151,01/23/2015 11:35:00 PM,DISTRICT 5,45219
5,1XX CALHOUN AV,39.1287648901304,-84.5133287078423,CUF,2828,149029802,1,"NEW RICHMOND, OH 4515",WHITE,FEMALE,19,NONFATAL,11/22/2014 12:00:00 AM,NOV,020000,2,SAT,149029802,11/22/2014 02:00:00 AM,DISTRICT 5,45219
4,24XX VINE ST,39.1268156571071,-84.5126190243303,MOUNT AUBURN,1748,129005743,1,"CINC, OH 45202",BLACK,MALE,27,NONFATAL,03/05/2012 12:00:00 AM,MAR,020100,2,MON,129005743,03/05/2012 02:01:00 AM,DISTRICT 4,45219
3,33XX SAFFER ST,39.1438083780732,-84.5713819352886,EAST WESTWOOD,986,31004816,2,,BLACK,MALE,19,NONFATAL,05/26/2010 12:00:00 AM,MAY,,N/A,WED,31004816,05/26/2010 12:00:00 AM,DISTRICT 3,45211
1,3XX E THIRTEENTH ST,39.1097564186533,-84.509079231496,PENDLETON,3478,169012460,1,"CINCINNATI, OH 45202",BLACK,MALE,31,FATAL,05/25/2016 12:00:00 AM,MAY,213500,21,WED,169012460,05/25/2016 09:35:00 PM,DISTRICT 1,
4,3XX GLENWOOD AV,39.1519081302014,-84.500142402521,AVONDALE,1432,41103455,1,"CINC, OH 45231",BLACK,MALE,43,NONFATAL,06/05/2011 12:00:00 AM,JUN,225500,22,SUN,41103455,06/05/2011 10:55:00 PM,DISTRICT 4,45217
3,19XX WYOMING AV,39.122911691855,-84.5750208932646,WEST PRICE HILL,2869,159000073,1,"CINCINNATI, OH 45211",BLACK,MALE,19,NONFATAL,01/02/2015 12:00:00 AM,JAN,012000,1,FRI,159000073,01/02/2015 01:20:00 AM,DISTRICT 3,45205
5,26XX CHESTERFIELD CT,39.2020671773366,-84.5770262379577,MOUNT AIRY,2961,159009442,2,"CINTI, OH 45239",BLACK,FEMALE,29,NONFATAL,04/18/2015 12:00:00 AM,APR,184500,18,SAT,159009442,04/18/2015 06:45:00 PM,DISTRICT 5,45239
3,39XX GLENWAY AVE,39.1138346693937,-84.5782667050045,WEST PRICE HILL,1804,129010915,1,"CINC, OH",BLACK,MALE,19,NONFATAL,04/27/2012 12:00:00 AM,APR,235000,23,FRI,129010915,04/27/2012 11:50:00 PM,DISTRICT 3,45205
3,28XX FISCHER PL,39.1469012839129,-84.5931621916589,WESTWOOD,2284,139016586,1,"CINC, OH 45205",BLACK,MALE,27,NONFATAL,06/30/2013 12:00:00 AM,JUN,214000,21,SUN,139016586,06/30/2013 09:40:00 PM,DISTRICT 3,45211
3,36XX WARSAW AV,39.1106113370566,-84.57138415379,EAST PRICE HILL,1813,129011665,5,"CINC, OH 45231",BLACK,MALE,48,NONFATAL,05/06/2012 12:00:00 AM,MAY,053000,5,SUN,129011665,05/06/2012 05:30:00 AM,DISTRICT 3,45205
5,17XX CASEY DR,39.1769739158591,-84.5468757747739,NORTHSIDE,2463,139032140,1,"CINTI, OH 45225",BLACK,MALE,20,NONFATAL,11/25/2013 12:00:00 AM,NOV,200000,20,MON,139032140,11/25/2013 08:00:00 PM,DISTRICT 5,45223
5,8XX DUTCH COLONY DR,39.190062494757,-84.5189472229805,WINTON HILLS,1075,51004925S1,1,"CINC, OH 45224",BLACK,MALE,19,NONFATAL,08/16/2010 12:00:00 AM,AUG,,N/A,MON,51004925S1,08/16/2010 12:00:00 AM,DISTRICT 5,45232
5,1XX CRAFT ST,39.1788136441691,-84.5104091891808,WINTON HILLS,1640,51106364,1,"CIN, OH 45232",BLACK,MALE,23,NONFATAL,11/09/2011 12:00:00 AM,NOV,190500,19,WED,51106364,11/09/2011 07:05:00 PM,DISTRICT 5,45232
4,10XX CHAPEL ST,39.1307293479127,-84.4876286092983,WALNUT HILLS,3110,159017757,1,"CINCINNATI, OH 45206",BLACK,MALE,25,NONFATAL,07/09/2015 12:00:00 AM,JUL,220000,22,THU,159017757,07/09/2015 10:00:00 PM,DISTRICT 4,45206
1,14XX CLAY ST,39.1125416720761,-84.5124669462891,OVER-THE-RHINE,2392,139026049,1,"CINCINNATI, OH 45202",WHITE,MALE,42,NONFATAL,09/24/2013 12:00:00 AM,SEP,223600,22,TUE,139026049,09/24/2013 10:36:00 PM,DISTRICT 1,45202
1,4XX W LIBERTY ST,39.114187405804,-84.5243602466556,WEST END,1829,129013082,1,"CINC, OH 45202",BLACK,MALE,15,NONFATAL,05/17/2012 12:00:00 AM,MAY,131500,13,THU,129013082,05/17/2012 01:15:00 PM,DISTRICT 1,45214
3,18XX SUNSET AV,39.1241567213762,-84.5816468817499,WEST PRICE HILL,3674,169025611,1,,BLACK,MALE,30,NONFATAL,10/02/2016 12:00:00 AM,OCT,015900,1,SUN,169025611,10/02/2016 01:59:00 AM,DISTRICT 3,
1,1XX E CLIFTON ST,39.1146496643442,-84.5136087209681,OVER-THE-RHINE,1066,11003445,1,"CINC., OH 45203",BLACK,MALE,28,NONFATAL,08/08/2010 12:00:00 AM,AUG,,N/A,SUN,11003445,08/08/2010 12:00:00 AM,DISTRICT 1,45202
4,12XX CHAPEL ST,39.1318100251208,-84.4841337787367,WALNUT HILLS,2794,149026564,3,"CINC, OH 45206",BLACK,MALE,19,NONFATAL,10/18/2014 12:00:00 AM,OCT,133500,13,SAT,149026564,10/18/2014 01:35:00 PM,DISTRICT 4,45206
4,2XX SCHILLER ST,39.1135622446629,-84.5114800224374,MOUNT AUBURN,679,40905747,1,,BLACK,MALE,16,NONFATAL,08/17/2009 12:00:00 AM,AUG,,N/A,MON,40905747,08/17/2009 12:00:00 AM,DISTRICT 4,45202
3,8XX WELLS ST,39.1062208334289,-84.5706565532635,EAST PRICE HILL,3598,169019694,1,"CINCINNATI, OH 45238",BLACK,MALE,27,NONFATAL,08/03/2016 12:00:00 AM,AUG,193000,19,WED,169019694,08/03/2016 07:30:00 PM,DISTRICT 3,
4,8XX BLAIR AV,39.1405088841696,-84.4898718744149,AVONDALE,47,40801524,1,,BLACK,MALE,15,NONFATAL,03/11/2008 12:00:00 AM,MAR,,N/A,TUE,40801524,03/11/2008 12:00:00 AM,DISTRICT 4,45229
4,23XX READING RD,39.1243812701658,-84.5020142076216,MOUNT AUBURN,939,41001978,3,,BLACK,MALE,46,NONFATAL,04/12/2010 12:00:00 AM,APR,,N/A,MON,41001978,04/12/2010 12:00:00 AM,DISTRICT 4,45206
3,36XX LASALLE ST,39.1124058108653,-84.5702028745503,EAST PRICE HILL,2545,149004558,1,"CINCINNATI, OH 45205",WHITE,MALE,8,FATAL,03/01/2014 12:00:00 AM,MAR,161500,16,SAT,149004558,03/01/2014 04:15:00 PM,DISTRICT 3,45205
1,3XX E 14TH ST,39.1109208886187,-84.5085130615729,PENDLETON,1877,129018869,1,"MASON, OH 40540",WHITE,FEMALE,43,NONFATAL,07/06/2012 12:00:00 AM,JUL,131900,13,FRI,129018869,07/06/2012 01:19:00 PM,DISTRICT 1,45202
3,8XX FAIRBANKS AV,39.1070229873895,-84.5684375584051,EAST PRICE HILL,3404,169005320,1,"CINCINNATI, OH 45214",BLACK,MALE,19,NONFATAL,03/08/2016 12:00:00 AM,MAR,132500,13,TUE,169005320,03/08/2016 01:25:00 PM,DISTRICT 3,
4,79XX GLEN ORCHARD DR,39.2074622874146,-84.4596243602054,ROSELAWN,3499,169013918,1,"CINCINNATI, OH 45237",BLACK,MALE,18,NONFATAL,06/09/2016 12:00:00 AM,JUN,222200,22,THU,169013918,06/09/2016 10:22:00 PM,DISTRICT 4,
4,34XX BURNET AV #19,39.1448962816839,-84.5008599523003,AVONDALE,1253,41008168,1,"CINC, OH 45229",BLACK,MALE,17,NONFATAL,12/23/2010 12:00:00 AM,DEC,,N/A,THU,41008168,12/23/2010 12:00:00 AM,DISTRICT 4,45229
5,53XX HOLLAND DR,39.1892125608319,-84.512457653737,WINTON HILLS,456,50900668,2,,BLACK,MALE,24,NONFATAL,02/07/2009 12:00:00 AM,FEB,,N/A,SAT,50900668,02/07/2009 12:00:00 AM,DISTRICT 5,45232
5,50XX WINNESTE AV,39.1806730075137,-84.5113512097408,WINTON HILLS,2556,149005762,1,"CINCINNATI, OH 45232",BLACK,FEMALE,22,NONFATAL,03/17/2014 12:00:00 AM,MAR,193300,19,MON,149005762,03/17/2014 07:33:00 PM,DISTRICT 5,45232
3,49XX SHIRLEY PL,39.1264527165398,-84.6046064644128,WEST PRICE HILL,3411,169005996,1,"CINCINNATI, OH 45223",BLACK,MALE,35,NONFATAL,03/16/2016 12:00:00 AM,MAR,000700,0,WED,169005996,03/16/2016 12:07:00 AM,DISTRICT 3,
1,8XX POPLAR ST,39.1158512763499,-84.5300615100489,WEST END,309,10804958,1,,BLACK,MALE,30,NONFATAL,09/30/2008 12:00:00 AM,SEP,,N/A,TUE,10804958,09/30/2008 12:00:00 AM,DISTRICT 1,45214
4,18XX ANDINA AV,39.1744825218876,-84.4647442046083,BOND HILL,2763,149023781,1,"CINC, OH 45237",BLACK,FEMALE,25,FATAL,09/19/2014 12:00:00 AM,SEP,035000,3,FRI,149023781,09/19/2014 03:50:00 AM,DISTRICT 4,45237
3,32XX BOWLING GREEN CT,39.1436841578658,-84.5522248094367,MILLVALE,601,30905253,1,,BLACK,MALE,18,NONFATAL,06/13/2009 12:00:00 AM,JUN,,N/A,SAT,30905253,06/13/2009 12:00:00 AM,DISTRICT 3,45225
3,27XX ERLENE DR,39.1273569136884,-84.591656726931,WESTWOOD,3779,179000653,1,,BLACK,MALE,24,NONFATAL,01/08/2017 12:00:00 AM,JAN,113000,11,SUN,179000653,01/08/2017 11:30:00 AM,DISTRICT 3,
4,35XX WILSON AV,39.1459944867518,-84.5019271985472,AVONDALE,2383,139025966,2,"FAIRFIELD, OH 45014",BLACK,MALE,20,NONFATAL,09/18/2013 12:00:00 AM,SEP,140000,14,WED,139025966,09/18/2013 02:00:00 PM,DISTRICT 4,45229
1,8XX FINDLAY ST,39.115608539229,-84.5290667210836,WEST END,552,10901876,1,,BLACK,MALE,22,FATAL,05/07/2009 12:00:00 AM,MAY,,N/A,THU,10901876,05/07/2009 12:00:00 AM,DISTRICT 1,45214
1,16XX RACE ST,39.1127103354055,-84.517820169484,OVER-THE-RHINE,1102,11003913,1,"CINC, OH 45214",BLACK,MALE,18,NONFATAL,08/30/2010 12:00:00 AM,AUG,,N/A,MON,11003913,08/30/2010 12:00:00 AM,DISTRICT 1,45202
3,4XX VIENNA WOODS DR #403,39.154799803706,-84.5870669840453,WESTWOOD,1231,31011934,1,,UNKNOWN,MALE,110,NONFATAL,11/30/2010 12:00:00 AM,NOV,,N/A,TUE,31011934,11/30/2010 12:00:00 AM,DISTRICT 3,45211
1,19XX LINN ST,39.1181092578804,-84.5268086621273,WEST END,251,10803940,1,,BLACK,MALE,27,NONFATAL,08/11/2008 12:00:00 AM,AUG,,N/A,MON,10803940,08/11/2008 12:00:00 AM,DISTRICT 1,45214
1,5XX E THIRTEENTH ST,39.109801928742,-84.5062082236682,PENDLETON,716,10904235,2,,BLACK,MALE,21,NONFATAL,09/11/2009 12:00:00 AM,SEP,,N/A,FRI,10904235,09/11/2009 12:00:00 AM,DISTRICT 1,45202
4,XX E MCMILLAN ST,39.1263660371376,-84.5109561986626,MOUNT AUBURN,1260,41008213,2,0,BLACK,MALE,22,NONFATAL,12/27/2010 12:00:00 AM,DEC,,N/A,MON,41008213,12/27/2010 12:00:00 AM,DISTRICT 4,45219
2,57XX PEABODY AV,39.1588177156004,-84.394612480492,MADISONVILLE,1117,21004031S1,1,"CINC, OH 45227",BLACK,MALE,31,NONFATAL,09/10/2010 12:00:00 AM,SEP,,N/A,FRI,21004031S1,09/10/2010 12:00:00 AM,DISTRICT 2,45227
3,24XX BEEKMAN ST,39.1289827126899,-84.5447267955723,SOUTH FAIRMOUNT,3267,159029202,2,"CINCINNATI, OH 45212",BLACK,MALE,23,NONFATAL,10/25/2015 12:00:00 AM,OCT,012200,1,SUN,159029202,10/25/2015 01:22:00 AM,DISTRICT 3,
3,23XX BALTIMORE AV,39.150150285047,-84.5615748929399,EAST WESTWOOD,722,30908682,1,,BLACK,MALE,24,NONFATAL,09/14/2009 12:00:00 AM,SEP,,N/A,MON,30908682,09/14/2009 12:00:00 AM,DISTRICT 3,45225
3,32XX MCHENRY AV,39.1457565469511,-84.5736668053111,WESTWOOD,3814,179003746,1,,BLACK,MALE,29,NONFATAL,02/09/2017 12:00:00 AM,FEB,152000,15,THU,179003746,02/09/2017 03:20:00 PM,DISTRICT 3,
2,56XX LUHN AV,39.1675128177627,-84.3961593654768,MADISONVILLE,1182,21004770,1,"CINC, OH 45227",BLACK,MALE,65,FATAL,10/23/2010 12:00:00 AM,OCT,,N/A,SAT,21004770,10/23/2010 12:00:00 AM,DISTRICT 2,45227
2,64XX KENNEDY AV,39.1867285595995,-84.4133891627105,KENNEDY HEIGHTS,774,20905400,1,,BLACK,MALE,46,NONFATAL,11/17/2009 12:00:00 AM,NOV,,N/A,TUE,20905400,11/17/2009 12:00:00 AM,DISTRICT 2,45213
4,6XX GREENWOOD AV,39.153141423626,-84.4897110595144,NORTH AVONDALE,3399,169005121,1,"CINCINNATI, OH 45211",BLACK,MALE,22,NONFATAL,03/05/2016 12:00:00 AM,MAR,210000,21,SAT,169005121,03/05/2016 09:00:00 PM,DISTRICT 4,
4,30XX ALMS PL,39.1328180781239,-84.4834288374716,WALNUT HILLS,2227,139013216,3,"CINC, OH 45212",BLACK,MALE,35,NONFATAL,05/27/2013 12:00:00 AM,MAY,215000,21,MON,139013216,05/27/2013 09:50:00 PM,DISTRICT 4,45206
5,1XX TOPRIDGE PL,39.182419441361,-84.5115830613782,WINTON HILLS,2196,139011307,1,"CINC, OH 45211",BLACK,MALE,28,NONFATAL,05/10/2013 12:00:00 AM,MAY,075500,7,FRI,139011307,05/10/2013 07:55:00 AM,DISTRICT 5,45232
5,54XX WINNESTE AV,39.1902271009188,-84.5139310208535,WINTON HILLS,139,50803105,1,,BLACK,MALE,18,NONFATAL,05/31/2008 12:00:00 AM,MAY,,N/A,SAT,50803105,05/31/2008 12:00:00 AM,DISTRICT 5,45232
1,1XX E THIRTEENTH ST,39.1102623393873,-84.5131235686214,OVER-THE-RHINE,1037,11002974,1,"CINC, OH 45202",BLACK,MALE,33,NONFATAL,07/04/2010 12:00:00 AM,JUL,,N/A,SUN,11002974,07/04/2010 12:00:00 AM,DISTRICT 1,45202
5,58XX SHADYMIST LN,39.2004881174168,-84.5784984582766,MOUNT AIRY,3294,159030744,2,"CINCINNATI, OH 45239",BLACK,MALE,50,NONFATAL,11/11/2015 12:00:00 AM,NOV,183000,18,WED,159030744,11/11/2015 06:30:00 PM,DISTRICT 5,
4,21XX HIGHLAND AV,39.1197920231241,-84.5042944976145,MOUNT AUBURN,2454,139031240,1,"CINC, OH 45219",BLACK,MALE,35,NONFATAL,11/15/2013 12:00:00 AM,NOV,194900,19,FRI,139031240,11/15/2013 07:49:00 PM,DISTRICT 4,45219
